,address,num_bathrooms,num_bedrooms,lat,long,price
0,"136 Mairangi Road, Wilton, Wellington",1,2,-41.2680735167,174.7643546,$TBC
1,"19 Lochiel Road, Khandallah, Wellington",3,4,-41.2469473833,174.7933807,$TBC
2,"2/99 Dixon Street, Te Aro, Wellington",2,3,-41.2912210667,174.774468867,$TBC
3,"48B Wright Street, Mount Cook, Wellington",1,3,-41.3057513833,174.773429183,$TBC
4,"36 Reuben Avenue, Brooklyn, Wellington",2,3,-41.30812055,174.76095695,$TBC
5,"6/143 Cockayne Road, Khandallah, Wellington",2,3,-41.2522573167,174.783744583,$TBC
6,"99 Brougham Street, Mount Victoria, Wellington",2,3,-41.2990689333,174.784213767,$TBC
7,"8 Darwin Street, Karori, Wellington",2,4,-41.2836300833,174.733887183,$TBC
8,"15 Orari Street, Ngaio, Wellington",2,4,-41.2538329333,174.773574233,$TBC
9,"76 Farnham Street, Mornington, Wellington",1,3,-41.3193655167,174.766564567,$TBC
10,"8 Rochester Street, Wilton, Wellington",1,3,-41.2702802333,174.759367883,$TBC
11,"40 Ngatoto Street, Ngaio, Wellington",1,3,-41.2485057667,174.782455267,$TBC
12,"367A Karori Road, Karori, Wellington",1,2,-41.2873219167,174.728158833,$TBC
13,"24 Gloucester Street, Wilton, Wellington",1,3,-41.2695816833,174.7567048,$TBC
14,"38 Todman Street, Brooklyn, Wellington",1,3,-41.3062454833,174.761418417,$TBC
15,"25 Voltaire Street, Karori, Wellington",2,3,-41.29397055,174.74336915,$TBC
16,"13 Ngaio Gorge Road, Ngaio, Wellington",1,3,-41.2559402333,174.773307867,"$855,000"
17,"B/82 Wallace Street, Mount Cook, Wellington",1,2,-41.3047314833,174.77487865,$TBC
18,"42A Landsdowne Terrace, Karori, Wellington",2,3,-41.29200555,174.729298883,$TBC
19,"160 Pembroke Road, Wilton, Wellington",2,3,-41.2717910167,174.7594861,$TBC
20,"6/11 Dufferin Street, Mount Victoria, Wellington",1,2,-41.3009724667,174.78162945,$TBC
21,"3 William Street, Hataitai, Wellington",1,3,-41.3046229167,174.7951863,$TBC
22,"36 Amritsar Street, Khandallah, Wellington",2,4,-41.2502737333,174.79714995,$TBC
23,"59 Fox Street, Ngaio, Wellington",2,4,-41.2451138,174.7763403,$TBC
24,"89 Totara Road, Miramar, Wellington",2,3,-41.3072796,174.826682783,$TBC
25,"159 Washington Avenue, Brooklyn, Wellington",1,3,-41.3099783833,174.766292367,$TBC
26,"377A Karaka Bay Road, Karaka Bays, Wellington",2,4,-41.3056154833,174.83112465,$TBC
27,"4/24 Elizabeth Street, Mount Victoria, Wellington",1,2,-41.296239,174.784224,$TBC
28,"110 Darlington Road, Miramar, Wellington",1,3,-41.3070288167,174.826061517,$TBC
29,"25 Glen Road, Kelburn, Wellington",2,4,-41.2865778667,174.763959383,$TBC
30,"52 Ellice Street, Mount Victoria, Wellington",3,5,-41.3006613,174.783841267,$TBC
31,"426 Karori Road, Karori, Wellington",2,4,-41.2886569667,174.723201283,$TBC
32,"128A Tasman Street, Mount Cook, Wellington",2,4,-41.3041318833,174.7764842,$TBC
33,"1/24 Tamar Street, Island Bay, Wellington",1,2,-41.33121585,174.77413935,$TBC
34,"285 Karaka Bay Road, Karaka Bays, Wellington",1,3,-41.3099592333,174.830077133,$TBC
35,"6 Travers Street, Vogeltown, Wellington",2,3,-41.315253,174.771346467,$TBC
36,"48 Ellice Street, Mount Victoria, Wellington",2,4,-41.3005776667,174.783611433,$TBC
37,"5/157 Hobart Street, Miramar, Wellington",1,2,-41.3168001833,174.816039433,$TBC
38,"4 Waitoa Road, Hataitai, Wellington",2,3,-41.3047391,174.796803733,$TBC
39,"17 Hewett Way, Ngaio, Wellington",2,3,-41.2553858833,174.767948917,$TBC
40,"181 Ohiro Road, Brooklyn, Wellington",2,3,-41.30474105,174.763560317,$TBC
41,"41 Southgate Road, Southgate, Wellington",1,3,-41.3348384833,174.782451183,$TBC
42,"12A Mairangi Road, Wadestown, Wellington",3,5,-41.2634517167,174.770455933,$TBC
43,"18 Hector Street, Seatoun, Wellington",3,5,-41.3245293667,174.8348143,$TBC
44,"89 Constable Street, Newtown, Wellington",1,3,-41.31277865,174.78473865,$TBC
45,"9 Pari Tai Way, Houghton Bay, Wellington",2,3,-41.3318132333,174.788609983,$TBC
46,"17A Strathmore Avenue, Strathmore Park, Wellington",1,2,-41.32588035,174.820625967,$TBC
47,"279 Mansfield Street, Newtown, Wellington",1,3,-41.3176212167,174.781186733,$TBC
48,"20 Rama Crescent, Khandallah, Wellington",2,4,-41.25501545,174.79097675,$TBC
49,"14 Wellington Road, Hataitai, Wellington",1,3,-41.3121198667,174.794552433,$TBC
50,"2 Kaikoura Street, Maupuia, Wellington",1,3,-41.3073199333,174.817893417,$TBC
51,"66A Wellington Road, Hataitai, Wellington",1,3,-41.3115453167,174.7910329,$TBC
52,"111 Silverstream Road, Crofton Downs, Wellington",3,4,-41.2510909344,174.757513604,$TBC
53,"9A Ridd Crescent, Karori, Wellington",2,3,-41.2883451333,174.73544095,$TBC
54,"61 Montreal Grove, Kingston, Wellington",2,4,-41.3257893167,174.76089025,$TBC
55,"53 Box Hill, Khandallah, Wellington",3,5,-41.2450299,174.79072285,$TBC
56,"30 Thurleigh Grove, Karori, Wellington",2,4,-41.28849205,174.719932733,$TBC
57,"5 Pomare Street, Ngaio, Wellington",1,3,-41.2481180167,174.780795483,$TBC
58,"33 Athens Street, Miramar, Wellington",2,4,-41.3170151667,174.8220921,$TBC
59,"23 Bentinck Avenue, Strathmore Park, Wellington",1,3,-41.3257779,174.82291485,$TBC
60,"450 Makara Road, Makara, Wellington",2,3,-41.2652757833,174.71068905,$TBC
61,"6 Newman Terrace, Thorndon, Wellington",2,4,-41.26926795,174.7795863,$TBC
62,"67 Standen Street, Karori, Wellington",1,3,-41.2777111167,174.748523767,$TBC
63,"141 Nicholson Road, Khandallah, Wellington",3,5,-41.2529756167,174.793845117,"$1,430,000"
64,"11 Orari Street, Ngaio, Wellington",2,3,-41.2536115167,174.773659833,$TBC
65,"11B Doris Gordon Crescent, Crofton Downs, Wellington",1,2,-41.2543804333,174.760425983,$TBC
66,"118 Glenmore Street, Northland, Wellington",2,4,-41.2841809167,174.760767367,$TBC
67,"10 Edinburgh Terrace, Berhampore, Wellington",1,3,-41.3215501833,174.779615633,$TBC
68,"79 Miramar North Road, Miramar, Wellington",1,3,-41.30536735,174.820817817,$TBC
69,"7 Standen Street, Karori, Wellington",1,3,-41.2807837667,174.750214183,$TBC
70,"20 Talavera Terrace, Kelburn, Wellington",3,4,-41.2835146833,174.7716185,$TBC
71,"26A Buckley Road, Southgate, Wellington",2,3,-41.3317834667,174.7822478,$TBC
72,"326 Ohiro Road, Brooklyn, Wellington",1,3,-41.3124383167,174.7616147,$TBC
73,"2 The Rigi, Northland, Wellington",1,3,-41.2852652333,174.75880575,$TBC
74,"28 Devon Street, Aro Valley, Wellington",2,4,-41.2939657,174.76691715,$TBC
75,"168 Mitchell Street, Brooklyn, Wellington",2,3,-41.3113287667,174.757773817,$TBC
76,"92 Mortimer Terrace, Brooklyn, Wellington",2,4,-41.2993325,174.76192375,$TBC
77,"6 Bank Road, Northland, Wellington",2,3,-41.2808921167,174.76436425,"$965,000"
78,"296 Karori Road, Karori, Wellington",2,3,-41.2854470167,174.734531917,"$985,000"
79,"5B Mace Street, Island Bay, Wellington",2,3,-41.3323193333,174.7773479,$TBC
80,"27 Boundary Road, Kelburn, Wellington",3,4,-41.2850623333,174.76101545,$TBC
81,"25A Bombay Street, Ngaio, Wellington",2,4,-41.2498770167,174.781437017,$TBC
82,"10 Newcombe Crescent, Karori, Wellington",2,4,-41.2826326,174.741128367,$TBC
83,"1E Kensington Street, Te Aro, Wellington",2,3,-41.29604775,174.772540883,"$1,000,000"
84,"27B Southgate Road, Southgate, Wellington",2,4,-41.3340152333,174.782539633,$TBC
85,"31 Collingwood Street, Ngaio, Wellington",1,3,-41.25116725,174.77124535,$TBC
86,"23A Quebec Street, Kingston, Wellington",1,1,-41.3225372167,174.76328725,$TBC
87,"67 Overtoun Terrace, Hataitai, Wellington",2,4,-41.3086899833,174.796291333,$TBC
88,"18 Charlotte Avenue, Brooklyn, Wellington",1,3,-41.3050413,174.762336633,$TBC
89,"6 Russell Terrace, Newtown, Wellington",2,3,-41.316867,174.780471,$TBC
90,"30 Rua Street, Lyall Bay, Wellington",1,3,-41.3302409167,174.791138583,"$690,000"
91,"18 Totara Road, Miramar, Wellington",3,4,-41.3111833667,174.826485667,$TBC
92,"309 Adelaide Road, Newtown, Wellington",2,3,-41.3127239,174.776438967,$TBC
93,"21 Bankot Crescent, Ngaio, Wellington",1,3,-41.2510551167,174.782103433,"$816,200"
94,"1 Lanark Way, Northland, Wellington",2,4,-41.27369765,174.761637867,"$750,000"
95,"132 The Ridgeway, Mornington, Wellington",2,3,-41.3177498,174.763760383,$TBC
96,"165A Ohiro Road, Brooklyn, Wellington",1,3,-41.3042158333,174.76425405,$TBC
97,"35 Aparima Avenue, Miramar, Wellington",1,3,-41.3193706667,174.816211583,$TBC
98,"2/15 Upper Lewisville Terrace, Thorndon, Wellington",1,2,-41.2776070833,174.7691034,$TBC
99,"7 Te Kainga Way, Khandallah, Wellington",3,5,-41.2526000667,174.787306733,$TBC
100,"380B Evans Bay Parade, Hataitai, Wellington",2,4,-41.3041039,174.80017,$TBC
101,"473 Ohiro Road, Brooklyn, Wellington",1,3,-41.3217070833,174.759954017,$TBC
102,"10 Harriett Street, Thorndon, Wellington",2,4,-41.27548525,174.772423483,$TBC
103,"73 Duncan Terrace, Kilbirnie, Wellington",1,3,-41.31853575,174.79074445,$TBC
104,"133 Mairangi Road, Wilton, Wellington",2,3,-41.2672191167,174.76641345,"$930,000"
105,"9 Winston Street, Crofton Downs, Wellington",2,3,-41.2559174167,174.764674767,"$885,715"
106,"15 Darwin Street, Karori, Wellington",2,4,-41.2843304,174.7334759,$TBC
107,"213 Cockayne Road, Ngaio, Wellington",1,3,-41.25263705,174.7783856,$TBC
108,"111 Breaker Bay Road, Breaker Bay, Wellington",1,3,-41.33298655,174.825809483,$TBC
109,"15 Flers Street, Karori, Wellington",2,3,-41.28295195,174.74833835,$TBC
110,"14 Garfield Street, Brooklyn, Wellington",1,3,-41.3072186,174.76573645,$TBC
111,"191 Marine Parade, Seatoun, Wellington",2,4,-41.3142330833,174.827424967,"$1,025,000"
112,"52 Bedford Street, Northland, Wellington",2,3,-41.2763637333,174.7606171,"$907,000"
113,"125 Cashmere Avenue, Khandallah, Wellington",2,4,-41.2484047167,174.800134617,$TBC
114,"A/68 Victory Avenue, Karori, Wellington",0,0,-41.2843977833,174.729863283,"$220,000"
115,"6/139 Queens Drive, Lyall Bay, Wellington",1,2,-41.3277012333,174.792107017,"$492,000"
116,"18/62 Moxham Avenue, Hataitai, Wellington",1,1,-41.3063873,174.793106767,"$350,000"
117,"14 Tobruk Street, Karori, Wellington",1,3,-41.28059715,174.729738333,"$765,000"
118,"11 Voltaire Street, Karori, Wellington",0,0,-41.29362945,174.743043783,$TBC
119,"42 Nicholson Road, Khandallah, Wellington",2,3,-41.24897545,174.79068465,$TBC
120,"63 Brougham Street, Mount Victoria, Wellington",2,3,-41.2973948,174.785146333,$TBC
121,"31 Rawhiti Terrace, Kelburn, Wellington",3,4,-41.2866096833,174.767696417,"$1,715,000"
122,"143 Campbell Street, Karori, Wellington",1,3,-41.2920100167,174.743623083,"$895,000"
123,"101 Parkvale Road, Karori, Wellington",2,4,-41.2790443667,174.73527165,"$890,000"
124,"29 Grant Road, Thorndon, Wellington",2,4,-41.2691485333,174.778620483,$TBC
125,"183D Wilton Road, Wilton, Wellington",2,3,-41.26949275,174.755926183,$TBC
126,"10 Russell Terrace, Newtown, Wellington",2,3,-41.31699335,174.780460083,$TBC
127,"88 Warwick Street, Wilton, Wellington",2,4,-41.26696785,174.764196917,"$890,000"
128,"5E/115 Dixon Street, Te Aro, Wellington",1,2,-41.291064,174.774041,"$630,000"
129,"23 Waikato Street, Island Bay, Wellington",2,3,-41.3324760333,174.7727937,"$898,000"
130,"2/21 Sunshine Avenue, Karori, Wellington",1,2,-41.284292,174.725017,$TBC
131,"6/258 Cockayne Road, Ngaio, Wellington",1,2,-41.2528431333,174.7763116,"$440,000"
132,"24 Avon Street, Island Bay, Wellington",1,3,-41.3336873167,174.775921233,$TBC
133,"25 Awarua Street, Ngaio, Wellington",2,3,-41.24618385,174.7726538,$TBC
134,"24 Alanbrooke Place, Karori, Wellington",0,0,-41.27918215,174.732715333,$TBC
135,"85 Pirie Street, Mount Victoria, Wellington",2,3,-41.2983481167,174.786455033,"$1,200,000"
136,"261 Darlington Road, Miramar, Wellington",1,2,-41.3017973,174.826236317,"$550,000"
137,"435A Broadway, Miramar, Wellington",2,3,-41.3247707667,174.816933917,$TBC
138,"62/120 Rintoul Street, Newtown, Wellington",2,3,-41.3155932,174.777001533,"$750,000"
139,"87 Garden Road, Northland, Wellington",1,3,-41.28163385,174.7640441,"$710,000"
140,"11 Raine Street, Karori, Wellington",3,4,-41.2836122167,174.738032733,"$1,450,000"
141,"13 Devon Street, Aro Valley, Wellington",1,3,-41.29438125,174.766596367,"$870,000"
142,"151 Washington Avenue, Brooklyn, Wellington",1,3,-41.3097019167,174.76594685,"$878,000"
143,"7 Putnam Street, Northland, Wellington",2,4,-41.2839389833,174.754909267,"$1,190,000"
144,"6 Lerwick Terrace, Melrose, Wellington",2,3,-41.3232962833,174.79165715,"$975,000"
145,"176 Barnard Street, Wadestown, Wellington",2,4,-41.2601746667,174.786279717,"$1,350,000"
146,"67 Miramar North Road, Miramar, Wellington",1,3,-41.3060414167,174.820187683,"$900,188"
147,"2 Tringham Street, Karori, Wellington",1,3,-41.2865439333,174.728399183,"$861,800"
148,"9 Selkirk Way, Karori, Wellington",2,4,-41.2898591833,174.73602515,"$385,000"
149,"7 Hay Street, Oriental Bay, Wellington",2,4,-41.2917385833,174.794786667,"$1,885,000"
150,"27 Croydon Street, Karori, Wellington",2,3,-41.29222505,174.74666785,"$800,000"
151,"11 Fortification Road, Karaka Bays, Wellington",2,3,-41.30007695,174.829998167,$TBC
152,"10 Rutland Way, Wadestown, Wellington",2,4,-41.2651269333,174.767199617,"$1,110,000"
153,"3 Cornford Street, Karori, Wellington",3,5,-41.2814233667,174.735574917,"$1,125,000"
154,"9 Bedford Street, Northland, Wellington",2,3,-41.2733264833,174.759860133,"$785,000"
155,"8/240 The Terrace, Wellington Central, Wellington",1,2,-41.2882330833,174.771643567,"$745,000"
156,"51 Northland Road, Northland, Wellington",2,3,-41.2837682,174.7561631,"$1,300,000"
157,"18 Espin Crescent, Karori, Wellington",2,4,-41.2860345833,174.752512617,$TBC
158,"6A Winnipeg Way, Kingston, Wellington",1,2,-41.32781075,174.763014783,"$450,000"
159,"51A Ganges Road, Khandallah, Wellington",1,3,-41.2482133333,174.7927161,"$787,500"
160,"4 Moir Street, Mount Victoria, Wellington",1,3,-41.2994515333,174.78298575,"$1,012,000"
161,"6B Winnipeg Way, Kingston, Wellington",1,2,-41.3278020333,174.762893933,"$400,000"
162,"6 Earls Terrace, Mount Victoria, Wellington",1,3,-41.2947620833,174.78826035,$TBC
163,"167 Aro Street, Aro Valley, Wellington",1,3,-41.2955697333,174.764428,"$782,000"
164,"2 Penlington Place, Karori, Wellington",1,3,-41.2794694,174.727777567,$TBC
165,"204 Coutts Street, Rongotai, Wellington",2,3,-41.3227877833,174.80264675,$TBC
166,"120 Campbell Street, Karori, Wellington",1,3,-41.2925938,174.743309883,"$795,000"
167,"14 Fiona Grove, Karori, Wellington",1,3,-41.29308695,174.7246539,"$640,000"
168,"10 Sandhurst Way, Crofton Downs, Wellington",1,2,-41.2593578667,174.763015333,"$644,000"
169,"33 Amapur Drive, Khandallah, Wellington",1,2,-41.2449540167,174.781062983,"$725,000"
170,"60 Hornsey Road, Melrose, Wellington",1,3,-41.3306958167,174.786668183,"$850,000"
171,"347 Adelaide Road, Newtown, Wellington",1,2,-41.3143243167,174.775910233,"$810,000"
172,"178 Darlington Road, Miramar, Wellington",2,4,-41.3026102167,174.8271239,"$1,020,000"
173,"68 Old Porirua Road, Ngaio, Wellington",2,3,-41.2567001833,174.781013633,"$599,611"
174,"2/46 Richmond Avenue, Karori, Wellington",1,2,-41.28951595,174.73072205,"$646,500"
175,"42 Ganges Road, Khandallah, Wellington",2,4,-41.2481983333,174.792225783,"$1,150,000"
176,"24 Hurman Street, Karori, Wellington",2,4,-41.28975455,174.74585045,"$1,320,000"
177,"2/74A Rotherham Terrace, Miramar, Wellington",1,2,-41.31269235,174.822006,"$625,000"
178,"18 Sugarloaf Road, Brooklyn, Wellington",1,3,-41.3040583167,174.760719,"$831,500"
179,"C/85 Makara Road, Karori, Wellington",0,0,-41.2850871667,174.719451083,"$980,000"
180,"22 Eden Street, Island Bay, Wellington",2,3,-41.3293377333,174.77236475,"$1,270,000"
181,"49 Tarikaka Street, Ngaio, Wellington",1,3,-41.24918095,174.781098667,"$925,000"
182,"20/8 Thatcher Crescent, Crofton Downs, Wellington",2,3,-41.2537663333,174.76654325,"$790,000"
183,"80 Para Street, Miramar, Wellington",1,3,-41.3133547,174.8226088,"$900,000"
184,"55 Everest Street, Khandallah, Wellington",2,3,-41.2494497833,174.79182975,"$1,100,000"
185,"32/40 The Terrace, Wellington Central, Wellington",1,2,-41.2803327,174.7750237,"$230,000"
186,"7 Yale Road, Mount Cook, Wellington",2,3,-41.30463035,174.775907833,"$800,000"
187,"7/219 Grant Road, Thorndon, Wellington",1,2,-41.27507705,174.77171675,"$500,000"
188,"31 Devon Street, Aro Valley, Wellington",2,3,-41.29368915,174.766736517,"$1,060,000"
189,"59 Hataitai Road, Hataitai, Wellington",2,4,-41.2992398667,174.79919855,"$1,100,000"
190,"116 Owen Street, Newtown, Wellington",2,4,-41.3148932333,174.7848538,"$1,145,200"
191,"7 Kingston Heights Road, Kingston, Wellington",1,3,-41.3211653833,174.76443485,"$820,000"
192,"131 Hornsey Road, Melrose, Wellington",2,4,-41.33183925,174.787363333,"$1,183,000"
193,"3/66 Ghuznee Street, Te Aro, Wellington",2,3,-41.2929022167,174.774965617,"$860,000"
194,"18 Canterbury Street, Karori, Wellington",2,3,-41.2774547167,174.73424835,"$765,000"
195,"17 Hamilton Road, Hataitai, Wellington",1,3,-41.3061843333,174.7956088,"$1,105,000"
196,"18 Central Terrace, Kelburn, Wellington",3,5,-41.2886415,174.766114833,$TBC
197,"196 Glenmore Street, Northland, Wellington",2,3,-41.2871037833,174.756614617,"$1,606,000"
198,"34 Oban Street, Wadestown, Wellington",2,3,-41.2619256333,174.778463933,"$1,100,000"
199,"11 Norfolk Street, Northland, Wellington",1,3,-41.28237005,174.755847467,"$990,000"
200,"3 Burrows Avenue, Karori, Wellington",2,3,-41.2870283833,174.731293617,"$1,050,000"
201,"407 Broadway, Miramar, Wellington",1,3,-41.3251014833,174.814357767,"$730,000"
202,"35 Brougham Street, Mount Victoria, Wellington",1,3,-41.2961872833,174.785833467,"$1,705,000"
203,"53 Mills Road, Brooklyn, Wellington",1,3,-41.3135701667,174.7658922,"$910,000"
204,"4B Palm Grove, Berhampore, Wellington",1,3,-41.3193110167,174.774860217,"$707,000"
205,"193B Townsend Road, Miramar, Wellington",2,4,-41.32100085,174.824634783,"$1,040,000"
206,"5A Duke Street, Mount Victoria, Wellington",1,2,-41.2937286833,174.787379933,"$820,000"
207,"60 Endeavour Street, Lyall Bay, Wellington",1,3,-41.32345695,174.796572167,"$875,000"
208,"259 Mitchell Street, Brooklyn, Wellington",2,4,-41.3161857833,174.759173067,"$1,050,000"
209,"2/14 Hector Street, Seatoun, Wellington",1,2,-41.3242362833,174.834896317,"$695,000"
210,"19 Shotter Street, Karori, Wellington",3,4,-41.2919113,174.738307317,"$956,000"
211,"1/54 Rama Crescent, Khandallah, Wellington",2,3,-41.2556158167,174.78992235,$TBC
212,"6 Rewa Road, Hataitai, Wellington",1,3,-41.304797,174.798737017,"$930,000"
213,"1/15 Kio Road, Hataitai, Wellington",1,2,-41.2981556833,174.803807833,"$670,000"
214,"145 Owen Street, Newtown, Wellington",2,3,-41.3170574667,174.785829333,$TBC
215,"9 Kaihuia Terrace, Northland, Wellington",1,3,-41.2784232167,174.758875367,"$805,000"
216,"125 Miramar North Road, Miramar, Wellington",2,3,-41.3027462167,174.823301283,"$830,000"
217,"489 Ohiro Road, Brooklyn, Wellington",1,3,-41.3228983333,174.75955265,"$765,000"
218,"5 Mcintyre Avenue, Mount Victoria, Wellington",2,3,-41.2933897,174.789533883,"$1,060,000"
219,"6 Colorado Grove, Brooklyn, Wellington",1,3,-41.3103234333,174.75768885,"$876,000"
220,"7 Holloway Road, Aro Valley, Wellington",1,3,-41.2939110833,174.75985475,"$919,000"
221,"144A Mitchell Street, Brooklyn, Wellington",1,2,-41.30933,174.758112,"$620,000"
222,"29 Khouri Avenue, Karori, Wellington",2,4,-41.2851462167,174.721244217,"$1,020,000"
223,"8 Greenview Way, Miramar, Wellington",1,3,-41.3049281167,174.8269182,"$945,500"
224,"33 Hudson Street, Island Bay, Wellington",1,3,-41.3355525833,174.778518117,"$525,000"
225,"7 Millward Street, Newtown, Wellington",1,3,-41.3141456,174.77916645,"$925,000"
226,"8A Childers Terrace, Kilbirnie, Wellington",1,2,-41.3166574,174.793555517,"$675,000"
227,"1 Mcfarlane Street, Mount Victoria, Wellington",1,3,-41.2925956167,174.787883183,"$1,221,100"
228,"1 Seddon Terrace, Newtown, Wellington",1,3,-41.3116077833,174.7870195,"$1,021,750"
229,"230 Ohiro Road, Brooklyn, Wellington",1,3,-41.3074631667,174.762573967,"$870,000"
230,"11 Warwick Street, Wilton, Wellington",1,3,-41.26893925,174.760490433,"$780,000"
231,"5 Beavis Lane, Karori, Wellington",3,5,-41.29166755,174.73848715,"$950,000"
232,"1/271 Karori Road, Karori, Wellington",2,3,-41.2852323,174.736330267,"$1,005,000"
233,"38 Rex Street, Miramar, Wellington",2,3,-41.3127034833,174.819487033,"$1,003,000"
234,"57 Nottingham Street, Karori, Wellington",1,3,-41.2787089,174.74769835,$TBC
235,"15 Reuben Avenue, Brooklyn, Wellington",2,3,-41.30776255,174.761883317,"$937,500"
236,"2 Samuel Parnell Road, Karori, Wellington",2,4,-41.2828677,174.7363787,"$885,000"
237,"14A Parklands Drive, Karori, Wellington",1,3,-41.2902125,174.726296283,"$595,000"
238,"4 Denbigh Way, Wilton, Wellington",2,3,-41.2680906667,174.765318567,"$897,000"
239,"2/12 Stanley Street, Berhampore, Wellington",2,3,-41.320201,174.772431,"$920,000"
240,"31C Patanga Crescent, Thorndon, Wellington",2,4,-41.2789263333,174.767439017,"$1,069,000"
241,"12 Laura Avenue, Brooklyn, Wellington",1,3,-41.3005756667,174.7629178,"$750,000"
242,"23 Belvedere Road, Hataitai, Wellington",2,4,-41.3064594333,174.798073967,"$1,300,000"
243,"38 Allington Road, Karori, Wellington",1,3,-41.2897147,174.719909783,"$910,000"
244,"18 Crofton Road, Ngaio, Wellington",3,5,-41.2536134333,174.774554667,"$1,275,000"
245,"177 Wilton Road, Wilton, Wellington",1,3,-41.2689471,174.7556854,"$890,800"
246,"26 Lohia Street, Khandallah, Wellington",3,5,-41.2497194833,174.800815233,"$1,800,000"
247,"3 Cruickshank Street, Kilbirnie, Wellington",3,5,-41.32110465,174.794986117,"$925,000"
248,"30 Tiketike Way, Brooklyn, Wellington",2,4,-41.3098650833,174.7615931,"$905,000"
249,"39 Townsend Road, Miramar, Wellington",1,3,-41.31479155,174.822706367,"$962,000"
250,"87 Todman Street, Brooklyn, Wellington",1,3,-41.3066256,174.75962465,"$690,000"
251,"28 Amapur Drive, Khandallah, Wellington",2,4,-41.24560055,174.781767433,"$950,000"
252,"5 Bruce Avenue, Brooklyn, Wellington",2,4,-41.3019865833,174.762485433,"$1,860,500"
253,"45 Cecil Road, Wadestown, Wellington",1,3,-41.2634603667,174.77243015,"$1,310,000"
254,"15B Perth Street, Ngaio, Wellington",2,4,-41.2549965833,174.7740508,"$1,070,000"
255,"57 Anne Street, Wadestown, Wellington",3,5,-41.26054845,174.7828264,"$2,160,000"
256,"29B Newport Terrace, Seatoun, Wellington",2,4,-41.317649,174.826867,$TBC
257,"153 Onslow Road, Khandallah, Wellington",2,4,-41.2488164667,174.8025948,"$790,000"
258,"8/22 Sussex Street, Mount Cook, Wellington",1,2,-41.2998302167,174.778864483,$TBC
259,"7 Clive Road, Khandallah, Wellington",3,5,-41.2515813667,174.79317465,"$5,750,000"
260,"13 Fortification Road, Karaka Bays, Wellington",2,4,-41.2999505833,174.829978467,"$1,100,000"
261,"2/185 Cecil Road, Wilton, Wellington",1,2,-41.2693422833,174.7670359,"$564,500"
262,"20 Versailles Street, Karori, Wellington",2,3,-41.2935626333,174.747079683,"$870,000"
263,"67 Weld Street, Wadestown, Wellington",2,3,-41.2633565333,174.773595983,"$1,420,000"
264,"144 Townsend Road, Miramar, Wellington",1,3,-41.3204463667,174.82215815,"$1,182,500"
265,"34 Tavistock Road, Melrose, Wellington",1,3,-41.3254229833,174.789534617,"$825,000"
266,"166 Queens Drive, Lyall Bay, Wellington",1,3,-41.3290366667,174.791561467,"$935,000"
267,"18B St Mary Street, Thorndon, Wellington",1,3,-41.2783607833,174.768186033,"$860,000"
268,"61 Ellesmere Avenue, Miramar, Wellington",2,3,-41.3199255333,174.815139,"$1,300,000"
269,"273 Darlington Road, Miramar, Wellington",1,2,-41.3020783333,174.8259861,"$650,000"
270,"65 Waitoa Road, Hataitai, Wellington",1,3,-41.3027645833,174.7925757,"$767,500"
271,"47A Percy Dyett Drive, Karori, Wellington",1,3,-41.2825020167,174.726441683,"$700,000"
272,"83 Volga Street, Island Bay, Wellington",2,4,-41.3329462333,174.779151967,"$910,000"
273,"57 Mills Road, Brooklyn, Wellington",2,4,-41.3137182833,174.7658489,"$1,067,000"
274,"8 Pitarua Street, Thorndon, Wellington",2,4,-41.2756908167,174.7713304,"$851,000"
275,"27 Grant Road, Thorndon, Wellington",2,3,-41.26907925,174.778686617,"$1,221,000"
276,"311/60 Willis Street, Wellington Central, Wellington",1,2,-41.2877808831,174.775321977,"$461,750"
277,"41 Buckley Road, Southgate, Wellington",1,3,-41.33264895,174.783554717,"$757,000"
278,"17C Onslow Road, Khandallah, Wellington",2,3,-41.2523241833,174.800248267,"$730,000"
279,"91A Duncan Terrace, Kilbirnie, Wellington",2,3,-41.3197693167,174.790502983,$TBC
280,"42 Buckingham Street, Melrose, Wellington",1,3,-41.32222945,174.7905594,"$650,000"
281,"2J/21 Rugby Street, Mount Cook, Wellington",1,2,-41.3016033667,174.780588317,"$622,000"
282,"89 Darlington Road, Miramar, Wellington",2,4,-41.3088855833,174.824838117,"$1,371,000"
283,"8/60 Owen Street, Newtown, Wellington",2,3,-41.31187265,174.783484367,"$810,000"
284,"18A Everest Street, Khandallah, Wellington",3,4,-41.2475135333,174.793846183,$TBC
285,"13 Agra Crescent, Khandallah, Wellington",3,4,-41.2454052833,174.7930008,$TBC
286,"6 Nakora Road, Karaka Bays, Wellington",2,4,-41.2995553667,174.83105005,"$1,511,500"
287,"8 Orleans Street, Ngaio, Wellington",1,3,-41.2477860667,174.76883045,"$845,000"
288,"7 Taft Street, Brooklyn, Wellington",1,3,-41.3089874,174.765505833,"$717,500"
289,"108A Weka Street, Miramar, Wellington",1,3,-41.30297565,174.825875683,$TBC
290,"42 Porritt Avenue, Mount Victoria, Wellington",2,3,-41.300107,174.785141,"$1,702,000"
291,"129 Tasman Street, Mount Cook, Wellington",2,3,-41.3039913667,174.776922217,"$1,100,000"
292,"42 Croydon Street, Karori, Wellington",2,4,-41.29224115,174.746268467,"$626,000"
293,"2D/138 Oriental Parade, Oriental Bay, Wellington",2,3,-41.2914833,174.789639917,"$2,060,000"
294,"30 Mornington Road, Brooklyn, Wellington",1,3,-41.310111,174.764030417,"$1,020,000"
295,"13 Waru Street, Khandallah, Wellington",3,5,-41.25273435,174.789185983,"$1,200,000"
296,"82 Mitchell Street, Brooklyn, Wellington",2,4,-41.3059052667,174.759030983,"$1,100,000"
297,"51A Waipapa Road, Hataitai, Wellington",2,4,-41.3014929167,174.800035483,"$1,300,000"
298,"12 Colombo Street, Newtown, Wellington",1,3,-41.3122643667,174.778354233,"$886,000"
299,"35 Upper Watt Street, Wadestown, Wellington",3,4,-41.2638051667,174.780412833,"$1,740,000"
300,"5 Chelsea Street, Miramar, Wellington",2,4,-41.31882045,174.81522175,"$1,325,000"
301,"14 Devonshire Road, Miramar, Wellington",2,4,-41.3216735833,174.81422745,"$935,888"
302,"2 Waripori Street, Berhampore, Wellington",2,4,-41.3187533667,174.780071633,"$928,000"
303,"5 Hornsey Road, Melrose, Wellington",2,3,-41.3250299833,174.788385367,"$750,000"
304,"74 Saddleback Grove, Karori, Wellington",2,3,-41.2943007833,174.724992133,"$650,000"
305,"8/123 The Parade, Island Bay, Wellington",1,2,-41.3339561833,174.7739677,"$730,000"
306,"3/9 /1 Queens Wharf, Wellington Central  6011, Wellington",2,3,-41.28457542945549,174.77795895283742,"$860,000"
307,"122 Hanson Street, Newtown, Wellington",1,3,-41.3101883833,174.775667883,"$685,000"
308,"20 Waipapa Road, Hataitai, Wellington",1,3,-41.2999867,174.801126717,"$1,351,000"
309,"59 Tirangi Road, Rongotai, Wellington",2,3,-41.3223138167,174.804455067,"$794,000"
310,"9A Motueka Street, Ngaio, Wellington",2,3,-41.2477509667,174.770984417,"$610,000"
311,"82 Chelmsford Street, Ngaio, Wellington",1,3,-41.24612515,174.77040195,$TBC
312,"11 Totara Road, Miramar, Wellington",1,2,-41.3116221667,174.826151667,"$620,000"
313,"265 South Karori Road, Karori, Wellington",0,0,-41.303452,174.712704,"$670,000"
314,"13B/120 The Terrace, Wellington Central, Wellington",1,2,-41.2833072833,174.774477583,"$365,000"
315,"27 Salamanca Road, Kelburn, Wellington",3,4,-41.2828497333,174.770182133,"$3,000,000"
316,"79A Ira Street, Miramar, Wellington",1,3,-41.3192734333,174.819873867,"$810,000"
317,"15B Mitchell Street, Brooklyn, Wellington",2,3,-41.3029495333,174.760032533,"$771,000"
318,"5 Epuni Street, Aro Valley, Wellington",1,2,-41.2956462333,174.766277917,"$900,000"
319,"100 Heke Street, Ngaio, Wellington",2,3,-41.2492451667,174.7669737,"$755,000"
320,"14 Roy Street, Newtown, Wellington",2,3,-41.319251,174.782354,"$1,200,000"
321,"3 Thurleigh Grove, Karori, Wellington",1,1,-41.2892953,174.7208217,"$395,000"
322,"47 Rata Road, Hataitai, Wellington",2,4,-41.3052708,174.799200217,"$1,725,000"
323,"112 Kelburn Parade, Kelburn, Wellington",2,3,-41.2917015333,174.764843417,"$1,650,000"
324,"41B Onslow Road, Khandallah, Wellington",1,2,-41.2501539,174.803339867,"$650,000"
325,"89B Waripori Street, Berhampore, Wellington",1,3,-41.3189148833,174.77429995,"$811,500"
326,"209 Cecil Road, Wilton, Wellington",0,0,-41.2701623833,174.7657682,"$326,000"
327,"6 Avon Street, Island Bay, Wellington",2,3,-41.3335534167,174.774110617,"$1,221,000"
328,"12 Elphinstone Avenue, Strathmore Park, Wellington",1,3,-41.3294325167,174.8223168,"$810,000"
329,"15/20 Hopper Street, Mount Cook, Wellington",1,2,-41.2989294333,174.773844817,"$150,000"
330,"43 Fox Street, Ngaio, Wellington",1,3,-41.2450924167,174.775005117,"$750,525"
331,"7 David Crescent, Karori, Wellington",1,3,-41.2808852,174.736675283,"$790,000"
332,"19/20 Thompson Street, Mount Cook, Wellington",1,3,-41.2979531167,174.77119625,"$525,000"
333,"4/157 Hobart Street, Miramar, Wellington",1,2,-41.31686085,174.816173267,"$665,000"
334,"93B Montgomery Avenue, Karori, Wellington",1,3,-41.2789590167,174.7266086,"$730,000"
335,"68 Lyall Parade, Lyall Bay, Wellington",1,3,-41.3291482833,174.79480735,"$860,068"
336,"13 Totara Road, Miramar, Wellington",1,3,-41.3114907833,174.8261139,"$920,000"
337,"27 Ascot Street, Thorndon, Wellington",1,2,-41.2786958,174.770359317,$TBC
338,"4/56 Tanera Crescent, Brooklyn, Wellington",1,2,-41.3028865833,174.7636574,"$690,000"
339,"114/80 Riddiford Street, Newtown, Wellington",1,2,-41.3106435,174.778722033,"$693,500"
340,"7 Kinross Street, Kelburn, Wellington",2,4,-41.2803389333,174.771392417,"$2,025,000"
341,"18 Marsden Avenue, Karori, Wellington",2,4,-41.2834102333,174.745655467,"$1,250,000"
342,"3/73 Marine Parade, Seatoun, Wellington",1,2,-41.3194718667,174.829688867,"$862,500"
343,"5A Wha Street, Lyall Bay, Wellington",2,3,-41.32617665,174.79460115,"$725,000"
344,"118 Cashmere Avenue, Khandallah, Wellington",2,3,-41.2482075833,174.79869365,"$1,050,000"
345,"7 Falkirk Avenue, Seatoun, Wellington",2,4,-41.3211031667,174.831944567,"$1,680,000"
346,"15 Ahuriri Street, Strathmore Park, Wellington",1,3,-41.3351974667,174.819642583,"$840,500"
347,"5/9 Athens Street, Miramar, Wellington",1,2,-41.3165717333,174.820685033,"$620,000"
348,"65 Cecil Road, Wadestown, Wellington",1,3,-41.2644636167,174.771834983,"$1,020,000"
349,"118 Onepu Road, Lyall Bay, Wellington",2,3,-41.3243676833,174.7951929,"$786,000"
350,"63 Hector Street, Seatoun, Wellington",2,4,-41.32724235,174.834308517,"$1,865,000"
351,"10A Buxton Avenue, Karori, Wellington",1,3,-41.28555655,174.718502067,"$794,500"
352,"20 Raumati Terrace, Khandallah, Wellington",2,3,-41.24751365,174.8012806,"$1,085,000"
353,"69A Percy Dyett Drive, Karori, Wellington",1,2,-41.2812338333,174.726486583,"$681,000"
354,"14 Trevor Terrace, Newtown, Wellington",2,4,-41.3148095667,174.776317517,"$1,200,000"
355,"5/2 Ohiro Road, Aro Valley, Wellington",1,2,-41.2960837167,174.769303067,"$635,000"
356,"26 Rodrigo Road, Kilbirnie, Wellington",2,4,-41.3198924833,174.79191755,"$1,120,000"
357,"88 Clyde Street, Island Bay, Wellington",2,3,-41.3339329333,174.7746882,"$1,330,000"
358,"21 The Crescent, Roseneath, Wellington",1,3,-41.2895265667,174.800348017,"$1,686,000"
359,"8/21A Talavera Terrace, Kelburn, Wellington",1,2,-41.2838229667,174.77175995,"$500,000"
360,"34 Stone Street, Miramar, Wellington",1,3,-41.3170161667,174.814832667,"$853,000"
361,"23 Moana Road, Kelburn, Wellington",2,3,-41.2887511667,174.755167367,"$1,471,000"
362,"3/20 Standen Street, Karori, Wellington",2,3,-41.2799945667,174.750455683,"$840,000"
363,"32 Mccoll Street, Vogeltown, Wellington",3,4,-41.3152660167,174.768965033,"$1,408,180"
364,"35 Mckinley Crescent, Brooklyn, Wellington",1,3,-41.3073037667,174.764517517,"$940,000"
365,"25 Townsend Road, Miramar, Wellington",2,4,-41.3136687,174.8230436,"$770,000"
366,"76 Sidlaw Street, Strathmore Park, Wellington",1,3,-41.33297645,174.823178483,"$706,000"
367,"4/38 Bankot Crescent, Ngaio, Wellington",1,2,-41.25012945,174.781918667,"$830,000"
368,"76 Evans Bay Parade, Roseneath, Wellington",1,3,-41.2909566167,174.803512217,"$1,290,000"
369,"155 Onslow Road, Khandallah, Wellington",1,3,-41.248967,174.802515,"$762,222"
370,"105 Barnard Street, Wadestown, Wellington",2,3,-41.2614522,174.783281117,"$1,170,000"
371,"31 Ngaio Gorge Road, Ngaio, Wellington",1,3,-41.2566095833,174.773740933,"$927,000"
372,"7B Percy Dyett Drive, Karori, Wellington",1,2,-41.2834108167,174.7250625,"$541,000"
373,"25A Ngatoto Street, Khandallah, Wellington",3,4,-41.24832975,174.783056733,"$1,130,000"
374,"10 Tai Paku Paku Road, Karaka Bays, Wellington",2,4,-41.3069780167,174.829913417,"$1,500,000"
375,"75 Saddleback Grove, Karori, Wellington",2,3,-41.2943086333,174.724915117,"$787,000"
376,"146 Oban Street, Wadestown, Wellington",1,3,-41.2591048,174.776967283,"$905,000"
377,"12/358 The Terrace, Te Aro, Wellington",1,3,-41.2938994333,174.76913395,"$748,000"
378,"58 Hatton Street, Karori, Wellington",1,3,-41.2797313167,174.742393,"$810,000"
379,"84 Campbell Street, Karori, Wellington",1,3,-41.2900988,174.741651467,"$917,000"
380,"71 Sar Street, Wadestown, Wellington",2,4,-41.2628357667,174.783783717,"$1,200,000"
381,"126 Wallace Street, Mount Cook, Wellington",1,2,-41.30667355,174.774927267,"$625,000"
382,"491A Karaka Bay Road, Karaka Bays, Wellington",3,4,-41.2985500833,174.832182417,"$1,750,000"
383,"15 Sunshine Avenue, Karori, Wellington",1,3,-41.2845455167,174.725275217,"$840,000"
384,"28 Caledonia Street, Miramar, Wellington",2,3,-41.3215792167,174.812596983,"$925,000"
385,"219A Adelaide Road, Newtown, Wellington",1,3,-41.3089646,174.777743367,"$818,050"
386,"27 Rintoul Street, Newtown, Wellington",1,2,-41.3131150333,174.778902733,"$862,000"
387,"49 Homewood Avenue, Karori, Wellington",3,5,-41.2799649833,174.745228567,"$2,490,000"
388,"21 Lower Watt Street, Wadestown, Wellington",2,4,-41.26461995,174.780115317,"$1,435,000"
389,"134 Totara Road, Miramar, Wellington",2,4,-41.3050918333,174.827875683,"$885,000"
390,"3/30 Ottawa Road, Ngaio, Wellington",1,2,-41.2498322167,174.774748033,"$660,000"
391,"6 Drake Street, Hataitai, Wellington",2,4,-41.3053768833,174.795781,"$1,350,000"
392,"27 Breton Grove, Kingston, Wellington",2,4,-41.32385335,174.7675707,"$965,000"
393,"15B Colorado Grove, Brooklyn, Wellington",1,2,-41.3105458333,174.757324733,"$490,000"
394,"8 Arizona Grove, Brooklyn, Wellington",1,3,-41.31346615,174.757681833,"$835,800"
395,"37 Winston Street, Crofton Downs, Wellington",1,3,-41.2577542833,174.764286167,"$625,000"
396,"21 Todman Street, Brooklyn, Wellington",1,3,-41.3059366167,174.762611783,"$1,011,100"
397,"11A Orleans Street, Ngaio, Wellington",2,3,-41.24821715,174.768856267,"$886,400"
398,"25 Kenwyn Terrace, Newtown, Wellington",2,3,-41.31276735,174.777805367,"$825,000"
399,"27 Braithwaite Street, Karori, Wellington",2,4,-41.2844763833,174.7478355,"$1,215,000"
400,"28 Izard Road, Khandallah, Wellington",2,4,-41.24658955,174.7942355,"$1,417,000"
401,"21 Hankey Street, Mount Cook, Wellington",2,3,-41.3013229667,174.773196783,"$1,115,000"
402,"82 Jubilee Road, Khandallah, Wellington",3,5,-41.2512089333,174.791052383,"$2,351,000"
403,"3 Borlase Street, Brooklyn, Wellington",1,3,-41.3117591667,174.762582633,"$625,000"
404,"37 Miro Street, Miramar, Wellington",1,3,-41.32334665,174.809867067,"$905,000"
405,"225 Sutherland Road, Lyall Bay, Wellington",1,3,-41.3318884833,174.79074335,"$982,000"
406,"3D/136 Oriental Parade, Oriental Bay, Wellington",2,2,-41.2915143833,174.789497883,"$1,931,500"
407,"110 Wexford Road, Miramar, Wellington",1,3,-41.3203719333,174.811109767,"$925,156"
408,"164 Hanson Street, Newtown, Wellington",2,3,-41.3116316833,174.7752437,"$850,000"
409,"30 Clutha Avenue, Khandallah, Wellington",2,3,-41.2488872667,174.788059783,"$1,490,000"
410,"192 Wilton Road, Wilton, Wellington",1,2,-41.2694035,174.755002017,"$565,000"
411,"11B Thurleigh Grove, Karori, Wellington",1,2,-41.2890566,174.720342717,"$500,000"
412,"8 Kilmister Avenue, Thorndon, Wellington",2,4,-41.2798332333,174.766652967,"$1,010,001"
413,"88 Rolleston Street, Mount Cook, Wellington",2,3,-41.3037884167,174.770772433,"$1,042,000"
414,"40 Hamilton Road, Hataitai, Wellington",1,3,-41.3072844333,174.794563617,"$995,000"
415,"23 Stafford Street, Mount Victoria, Wellington",2,3,-41.29504475,174.7898237,$TBC
416,"47 Bridge Street, Rongotai, Wellington",1,3,-41.3223595333,174.805588783,"$820,000"
417,"33A Hathaway Avenue, Karori, Wellington",1,3,-41.2918130667,174.720835167,"$778,000"
418,"139 Wadestown Road, Wadestown, Wellington",1,3,-41.2618182167,174.770777817,"$673,000"
419,"14 Terawhiti Terrace, Karori, Wellington",2,4,-41.2873840667,174.72073635,"$925,000"
420,"5 Poplar Grove, Thorndon, Wellington",1,3,-41.2747504667,174.773277717,"$990,000"
421,"98 Grafton Road, Roseneath, Wellington",1,3,-41.2936672,174.800126067,"$875,000"
422,"109 Totara Road, Miramar, Wellington",2,3,-41.3059456,174.826939433,"$1,300,000"
423,"23 Akaroa Drive, Maupuia, Wellington",1,3,-41.3082343667,174.816946283,"$876,000"
424,"84 Raroa Road, Kelburn, Wellington",1,3,-41.2906548333,174.759924133,"$752,000"
425,"32 Lawrence Street, Newtown, Wellington",2,3,-41.3166302167,174.786198633,"$1,140,000"
426,"30 Revans Street, Miramar, Wellington",2,3,-41.3063419333,174.8223832,"$901,750"
427,"22 Everest Street, Khandallah, Wellington",3,4,-41.2478364167,174.793546267,"$1,673,500"
428,"21 Tahi Street, Miramar, Wellington",2,3,-41.3143232667,174.815869017,"$872,000"
429,"33 Volga Street, Island Bay, Wellington",2,4,-41.3315626,174.78125155,"$1,240,000"
430,"23 Hinau Road, Hataitai, Wellington",2,3,-41.3035628667,174.7919575,"$865,000"
431,"14 Macalister Place, Miramar, Wellington",1,2,-41.3148188833,174.8144278,$TBC
432,"3/1 Wesley Road, Kelburn, Wellington",1,2,-41.282253,174.77181,"$525,000"
433,"6 Konini Road, Hataitai, Wellington",2,3,-41.3024007167,174.79548935,"$852,000"
434,"14 Dee Street, Island Bay, Wellington",1,3,-41.3291336167,174.7753656,"$901,500"
435,"41 Beauchamp Street, Karori, Wellington",3,4,-41.287758,174.738765,"$1,304,000"
436,"107 Breaker Bay Road, Breaker Bay, Wellington",2,3,-41.3325879167,174.8260701,"$1,117,500"
437,"91 Ellice Street, Mount Victoria, Wellington",2,4,-41.3012948,174.786554,"$1,405,000"
438,"21 Zetland Street, Highbury, Wellington",2,3,-41.2930031333,174.757968333,"$881,500"
439,"92 Downing Street, Crofton Downs, Wellington",2,4,-41.2551070333,174.75972295,"$1,121,000"
440,"3/27 Abbott Street, Ngaio, Wellington",1,2,-41.2502237333,174.775027,"$575,000"
441,"32 Central Terrace, Kelburn, Wellington",2,4,-41.2895201333,174.765803017,"$2,335,000"
442,"33 Raukawa Street, Strathmore Park, Wellington",1,3,-41.3305326167,174.817675533,"$781,000"
443,"97 Karori Road, Karori, Wellington",2,3,-41.2815990167,174.750331533,"$970,100"
444,"18 Versailles Street, Karori, Wellington",2,4,-41.2934712833,174.746729017,"$1,150,000"
445,"62 Rodrigo Road, Kilbirnie, Wellington",1,2,-41.3210294333,174.79069305,"$634,500"
446,"12 Kabul Street, Khandallah, Wellington",2,4,-41.25413185,174.784492583,"$1,075,000"
447,"111 Nevay Road, Miramar, Wellington",2,4,-41.3046521667,174.828673533,"$960,000"
448,"6 Makererua Street, Ngaio, Wellington",1,3,-41.2490930333,174.769336533,"$885,500"
449,"72 Nottingham Street, Karori, Wellington",2,4,-41.2778184333,174.747786783,"$1,200,072"
450,"148 Washington Avenue, Brooklyn, Wellington",1,3,-41.3095565667,174.765293217,"$673,000"
451,"325 Ohiro Road, Brooklyn, Wellington",1,3,-41.31224115,174.7620523,"$761,000"
452,"28 Paddington Grove, Karori, Wellington",2,4,-41.2855078667,174.717456,"$936,000"
453,"8B Awa Road, Miramar, Wellington",2,3,-41.31356295,174.825455483,"$1,020,000"
454,"30 Futuna Close, Karori, Wellington",2,3,-41.2810760167,174.738176533,"$880,088"
455,"46 Rodrigo Road, Kilbirnie, Wellington",3,5,-41.3208019833,174.7924295,"$1,700,000"
456,"53 Harbour View Road, Northland, Wellington",3,5,-41.2830843333,174.759950717,"$965,000"
457,"6 Mortimer Terrace, Aro Valley, Wellington",1,3,-41.2971797,174.7648163,"$865,000"
458,"19 Lonsdale Crescent, Rongotai, Wellington",2,4,-41.3206206167,174.803232783,"$1,057,000"
459,"21 Douglas Street, Mount Cook, Wellington",1,2,-41.302095,174.778039983,"$765,000"
460,"1/12 Norna Crescent, Kelburn, Wellington",1,2,-41.2905737,174.757087383,$TBC
461,"13/240 The Terrace, Wellington Central, Wellington",1,3,-41.2883137833,174.771741633,"$710,000"
462,"9 Alexandra Road, Roseneath, Wellington",2,4,-41.2959759167,174.798383317,"$1,458,000"
463,"32 Yule Street, Kilbirnie, Wellington",2,3,-41.3200767833,174.799017467,"$975,000"
464,"41 Drummond Street, Mount Cook, Wellington",3,4,-41.3049029833,174.77665015,"$1,760,000"
465,"43A Rhine Street, Island Bay, Wellington",1,3,-41.3313501167,174.770718367,"$852,000"
466,"8A Wellington Road, Hataitai, Wellington",1,2,-41.3120184167,174.795031583,"$761,500"
467,"3/31 Homebush Road, Khandallah, Wellington",1,1,-41.2492279667,174.805920917,"$372,500"
468,"31D Patanga Crescent, Thorndon, Wellington",1,2,-41.2788674333,174.767337467,"$916,668"
469,"41 Mana Street, Vogeltown, Wellington",2,3,-41.3148635333,174.767990783,"$1,326,500"
470,"20 Duchess Place, Maupuia, Wellington",1,3,-41.30804755,174.81602325,"$1,075,000"
471,"22A Ottawa Road, Ngaio, Wellington",2,4,-41.25016965,174.77402205,"$1,241,000"
472,"348 The Terrace, Te Aro, Wellington",2,4,-41.2925345,174.769799817,"$1,432,000"
473,"24 John Witton Drive, Crofton Downs, Wellington",1,3,-41.2627558167,174.758565533,"$765,000"
474,"181 Pembroke Road, Wilton, Wellington",2,3,-41.27079145,174.76078425,"$887,000"
475,"8 Park Street, Thorndon, Wellington",3,4,-41.2712940167,174.777178033,"$1,896,000"
476,"86 Downing Street, Crofton Downs, Wellington",3,4,-41.2558468,174.760437567,"$1,400,000"
477,"8 Blakey Avenue, Karori, Wellington",2,3,-41.2876643167,174.732230833,"$1,100,000"
478,"45 Mairangi Road, Wadestown, Wellington",2,3,-41.2628470667,174.768503883,"$975,000"
479,"12 Eden Street, Island Bay, Wellington",2,3,-41.3288936667,174.772274017,"$1,307,000"
480,"56 Glenmore Street, Northland, Wellington",1,3,-41.2812762,174.765213267,"$1,311,000"
481,"71 Montgomery Avenue, Karori, Wellington",1,3,-41.27952155,174.7290422,"$810,250"
482,"32 Kilbirnie Crescent, Kilbirnie, Wellington",1,3,-41.3133688167,174.792763867,"$870,000"
483,"3/8 /1 Queens Wharf, Wellington Central  6011, Wellington",2,3,-41.28457542945549,174.77795895283742,"$821,000"
484,"21 Hawker Street, Mount Victoria, Wellington",2,3,-41.293714,174.787905,"$1,575,000"
485,"21 Cavendish Square, Strathmore Park, Wellington",2,3,-41.32549185,174.8252064,"$1,475,000"
486,"9C Tavistock Road, Melrose, Wellington",2,3,-41.3258080833,174.791620917,"$847,000"
487,"57 Cornford Street, Karori, Wellington",1,3,-41.2793106833,174.7346512,"$892,250"
488,"18 Chelmsford Street, Ngaio, Wellington",2,4,-41.2487309,174.77118145,"$1,205,000"
489,"15 Birkhall Grove, Strathmore Park, Wellington",2,3,-41.3357660167,174.819978983,"$825,000"
490,"20 South Karori Road, Karori, Wellington",2,2,-41.2897203333,174.723216,"$750,000"
491,"15 Plymouth Street, Karori, Wellington",2,3,-41.2872101667,174.748830167,"$1,253,000"
492,"88 Britomart Street, Berhampore, Wellington",2,4,-41.3205250333,174.774438217,"$1,390,000"
493,"73 Yule Street, Kilbirnie, Wellington",2,3,-41.3226785,174.79842955,"$1,005,000"
494,"5 Waripori Street, Berhampore, Wellington",2,3,-41.3190023167,174.779941567,"$1,275,321"
495,"41 Marewa Road, Hataitai, Wellington",2,3,-41.29829795,174.795959533,"$1,111,111"
496,"39 Revans Street, Miramar, Wellington",2,3,-41.3067928167,174.820893083,"$855,000"
497,"77 Majoribanks Street, Mount Victoria, Wellington",2,3,-41.2953563667,174.788544017,"$1,170,000"
498,"94 Moxham Avenue, Hataitai, Wellington",2,3,-41.3078040667,174.792663067,"$1,056,000"
499,"2 Ngata Street, Ngaio, Wellington",2,3,-41.24786155,174.7797575,"$1,300,000"
500,"71 Wellington Road, Kilbirnie, Wellington",1,3,-41.31200205,174.790504417,"$861,000"
501,"12 Camrose Grove, Kingston, Wellington",2,3,-41.3257897,174.761834283,$TBC
502,"4 Reuben Avenue, Brooklyn, Wellington",1,3,-41.3074830667,174.7622924,"$910,000"
503,"29 The Crescent, Roseneath, Wellington",2,4,-41.28985325,174.800157967,"$3,120,000"
504,"32 Ashton Fitchett Drive, Brooklyn, Wellington",2,4,-41.3033794833,174.7554698,"$1,285,000"
505,"36 Verviers Street, Karori, Wellington",1,3,-41.2908715167,174.738082317,"$910,000"
506,"1/51 Adams Terrace, Kelburn, Wellington",1,1,-41.29244625,174.765166367,"$300,000"
507,"31 Roy Street, Newtown, Wellington",2,4,-41.3188254833,174.782973033,"$1,235,000"
508,"2B Percy Dyett Drive, Karori, Wellington",1,2,-41.2835708,174.72548515,"$560,250"
509,"9/4 Claremont Grove, Mount Victoria, Wellington",1,2,-41.2959585833,174.787671733,"$565,000"
510,"6/38 Cleveland Street, Brooklyn, Wellington",1,2,-41.304907,174.764646783,"$552,000"
511,"69 Tannadyce Street, Strathmore Park, Wellington",2,3,-41.3280172,174.82508085,"$815,000"
512,"16 Glendavar Street, Berhampore, Wellington",2,3,-41.3220146667,174.77886465,"$1,110,000"
513,"51 Grafton Road, Roseneath, Wellington",2,4,-41.29141195,174.801095383,"$2,280,000"
514,"16/42 Abel Smith Street, Te Aro, Wellington",1,1,-41.2963336,174.774965567,"$642,420"
515,"271 Mitchell Street, Brooklyn, Wellington",1,3,-41.3172419833,174.759133433,"$600,000"
516,"33A Rawhiti Terrace, Kelburn, Wellington",2,4,-41.28698175,174.767888683,"$1,335,000"
517,"151A Maupuia Road, Miramar, Wellington",1,3,-41.3093753833,174.81770325,"$620,000"
518,"16 Hauraki Street, Karori, Wellington",2,4,-41.2787705333,174.743711717,"$1,300,000"
519,"4 Fortification Road, Karaka Bays, Wellington",2,3,-41.3010269,174.8299186,$TBC
520,"23 Tio Tio Road, Miramar, Wellington",2,4,-41.3228315,174.824017817,"$1,150,000"
521,"55 Wade Street, Wadestown, Wellington",3,5,-41.2645767833,174.774011283,"$1,800,000"
522,"19J Kabul Street, Khandallah, Wellington",2,4,-41.2557996167,174.78450385,"$1,080,000"
523,"109 Te Anau Road, Hataitai, Wellington",2,3,-41.29928765,174.8033428,"$1,175,000"
524,"63 Pretoria Road, Karaka Bays, Wellington",2,4,-41.3028593667,174.830625233,"$1,900,000"
525,"4/14 College Street, Te Aro, Wellington",1,2,-41.2962175667,174.781210417,"$560,000"
526,"48 Montgomery Avenue, Karori, Wellington",2,4,-41.2808901667,174.73101735,"$850,000"
527,"18B Normanby Street, Newtown, Wellington",1,2,-41.3149659667,174.781435733,"$680,000"
528,"50 Montreal Grove, Kingston, Wellington",1,3,-41.3256437167,174.76021665,"$794,500"
529,"38A Montreal Grove, Kingston, Wellington",1,3,-41.3247913667,174.760316283,"$650,000"
530,"12/185 Tasman Street, Mount Cook, Wellington",2,3,-41.30629985,174.776444783,"$732,500"
531,"405 Ohiro Road, Brooklyn, Wellington",1,3,-41.3171891167,174.76120515,"$521,000"
532,"7 Finnimore Terrace, Vogeltown, Wellington",1,3,-41.3115719667,174.771656017,"$902,500"
533,"46A Parkvale Road, Karori, Wellington",2,3,-41.2818483333,174.73711955,"$940,500"
534,"6 Hervey Way, Kaiwharawhara, Wellington",3,4,-41.2563802667,174.7933461,"$1,700,000"
535,"6 Papawai Terrace, Mount Cook, Wellington",1,3,-41.3042223333,174.773365033,"$1,120,000"
536,"11 Winston Street, Crofton Downs, Wellington",2,3,-41.2560522333,174.7646521,"$1,006,120"
537,"87 Clyde Street, Island Bay, Wellington",2,4,-41.333841,174.775074233,"$1,425,000"
538,"79A Woodhouse Avenue, Karori, Wellington",1,2,-41.2935743833,174.7266061,"$627,000"
539,"160 Parkvale Road, Karori, Wellington",2,3,-41.2762007,174.736047267,"$755,000"
540,"121 Onslow Road, Khandallah, Wellington",1,3,-41.2490155,174.80286955,"$650,000"
541,"8 Rodney Street, Northland, Wellington",1,3,-41.2783234667,174.757451117,"$760,000"
542,"20 Homewood Crescent, Karori, Wellington",3,4,-41.2784625667,174.746899767,"$1,416,650"
543,"1/231 Marine Parade, Seatoun, Wellington",1,1,-41.3125963333,174.829254917,"$425,000"
544,"B/96 Homebush Road, Khandallah, Wellington",2,3,-41.2469215667,174.808435817,"$1,010,000"
545,"23 Doris Gordon Crescent, Crofton Downs, Wellington",2,4,-41.2539525667,174.759825267,"$930,000"
546,"8C Awa Road, Miramar, Wellington",2,3,-41.3135459167,174.8255043,"$960,000"
547,"11 Norway Street, Aro Valley, Wellington",1,3,-41.2916234667,174.760533983,"$470,000"
548,"67A Freyberg Street, Lyall Bay, Wellington",2,3,-41.3268665167,174.794231333,"$935,000"
549,"204 Tinakori Road, Thorndon, Wellington",2,3,-41.2751779833,174.773260367,"$965,000"
550,"20 Halifax Street, Kingston, Wellington",1,3,-41.3242760667,174.765388117,"$350,000"
551,"7 Marsden Avenue, Karori, Wellington",1,3,-41.2838594333,174.746560767,"$1,200,000"
552,"63 Bridge Street, Rongotai, Wellington",2,3,-41.32322215,174.805523933,"$612,500"
553,"6 Forsyth Grove, Brooklyn, Wellington",3,4,-41.30578585,174.750664383,"$1,145,000"
554,"6 Kamla Way, Khandallah, Wellington",2,4,-41.24621465,174.797358317,"$905,000"
555,"360 Tinakori Road, Thorndon, Wellington",2,3,-41.2792874667,174.768486183,"$1,080,000"
556,"167 Wadestown Road, Wadestown, Wellington",2,4,-41.2618236,174.768744617,"$1,055,000"
557,"8B Moturoa Street, Pipitea, Wellington",2,3,-41.2753380833,174.78157645,"$1,055,000"
558,"12 Warwick Street, Wilton, Wellington",1,2,-41.2693063333,174.7602478,"$395,000"
559,"1/7 Hanson Street, Mount Cook, Wellington",1,1,-41.30541205,174.777461217,"$470,000"
560,"25/32 Cuba Street, Te Aro, Wellington",2,3,-41.2903214333,174.777210033,"$620,000"
561,"9 Fiona Grove, Karori, Wellington",1,3,-41.29302095,174.724132467,"$610,000"
562,"3/147 Glenmore Street, Kelburn, Wellington",1,1,-41.2856056833,174.759224967,"$420,000"
563,"55 Apuka Street, Brooklyn, Wellington",2,3,-41.3018855833,174.759260517,"$985,000"
564,"34 Puru Crescent, Lyall Bay, Wellington",1,3,-41.3255957833,174.797158767,$TBC
565,"114 Akaroa Drive, Maupuia, Wellington",1,2,-41.3025676167,174.821308933,"$560,000"
566,"71A Wade Street, Wadestown, Wellington",2,4,-41.26434255,174.772752917,"$488,000"
567,"7 Chisenhall Street, Karori, Wellington",3,5,-41.2830538167,174.749045817,"$1,510,000"
568,"38 Evans Bay Parade, Roseneath, Wellington",2,4,-41.2890554333,174.803085233,"$1,305,395"
569,"4 Montgomery Avenue, Karori, Wellington",1,3,-41.28338675,174.73084095,"$650,000"
570,"33 Hay Street, Oriental Bay, Wellington",3,4,-41.29214865,174.795896217,"$1,400,000"
571,"17 Waiapu Road, Kelburn, Wellington",1,3,-41.2881439667,174.753955817,"$700,000"
572,"3 Bunker Way, Strathmore Park, Wellington",2,3,-41.3303098667,174.81640215,"$950,000"
573,"60 Hathaway Avenue, Karori, Wellington",1,3,-41.2938782333,174.720264833,"$730,000"
574,"6 Kupe Street, Hataitai, Wellington",2,4,-41.3104082667,174.792618267,"$1,200,000"
575,"21 Anne Street, Wadestown, Wellington",3,4,-41.26237715,174.781581433,"$1,800,000"
576,"57 Hamilton Road, Hataitai, Wellington",3,5,-41.3080839667,174.795032617,"$1,322,000"
577,"9A Treasure Grove, Hataitai, Wellington",3,4,-41.3018492833,174.803066517,"$2,050,000"
578,"76 Monro Street, Seatoun, Wellington",3,5,-41.3265717333,174.832623517,"$1,920,000"
579,"32 Lohia Street, Khandallah, Wellington",2,4,-41.2495763833,174.80031795,"$1,100,000"
580,"12A Landsdowne Terrace, Karori, Wellington",2,3,-41.29136525,174.726930617,"$620,000"
581,"5 Waru Street, Khandallah, Wellington",3,5,-41.2522773167,174.789901517,"$1,356,000"
582,"178 Noel Ashton Way, Makara, Wellington",0,0,-41.324551171,174.695141566,"$375,000"
583,"37 Hania Street, Mount Victoria, Wellington",2,4,-41.2992288,174.782237883,"$1,300,000"
584,"1 Heaton Terrace, Brooklyn, Wellington",2,4,-41.3051563167,174.7676702,"$1,750,000"
585,"10 Lohia Street, Khandallah, Wellington",3,5,-41.2499855333,174.8020602,"$1,770,000"
586,"3/14A Glenmore Street, Thorndon, Wellington",2,3,-41.28021215,174.7667341,"$620,000"
587,"186 Oriental Parade, Oriental Bay, Wellington",2,3,-41.2911091833,174.791747933,"$3,350,000"
588,"49 Huntingdon Street, Northland, Wellington",1,2,-41.2721657833,174.761498783,"$585,500"
589,"180C Sutherland Road, Lyall Bay, Wellington",2,4,-41.3293731,174.789358117,"$715,000"
590,"3 Busaco Road, Hataitai, Wellington",1,3,-41.3107569667,174.794018483,"$950,000"
591,"31 Amritsar Street, Khandallah, Wellington",2,3,-41.2496161667,174.797288483,"$1,050,000"
592,"42 Mandalay Terrace, Khandallah, Wellington",2,4,-41.2466376167,174.804114283,"$845,000"
593,"1/24 Ottawa Road, Ngaio, Wellington",2,3,-41.2497317,174.774122867,"$770,000"
594,"20 Imlay Crescent, Ngaio, Wellington",2,3,-41.25235175,174.775194467,"$826,000"
595,"1/17 Hepara Street, Hataitai, Wellington",1,2,-41.2970577,174.797268967,"$350,000"
596,"78 Orangi Kaupapa Road, Northland, Wellington",3,5,-41.27893485,174.762540633,$TBC
597,"91 Ludlam Street, Seatoun, Wellington",2,3,-41.3248840667,174.836993183,"$1,500,000"
598,"53 Fairview Crescent, Kelburn, Wellington",1,3,-41.2885618,174.758562017,"$1,310,000"
599,"202 Townsend Road, Miramar, Wellington",1,3,-41.3219902833,174.825213183,"$840,000"
600,"3 Mathieson Avenue, Khandallah, Wellington",2,4,-41.2460765833,174.79953405,"$960,000"
601,"9 Marsh Way, Kaiwharawhara, Wellington",0,0,-41.2574682167,174.790955267,"$635,000"
602,"2/36 Roxburgh Street, Mount Victoria, Wellington",1,2,-41.2932135333,174.78622855,"$615,000"
603,"11A Balfour Street, Mornington, Wellington",1,3,-41.3200249333,174.7670951,"$835,000"
604,"27 The Parade, Island Bay, Wellington",2,3,-41.3297404333,174.774090417,"$1,304,000"
605,"3A Chancellor Way, Crofton Downs, Wellington",1,2,-41.2618244667,174.76163035,"$569,000"
606,"39B Braithwaite Street, Karori, Wellington",2,4,-41.28475055,174.7468287,"$1,082,000"
607,"402/332 Lambton Quay, Wellington Central, Wellington",1,1,-41.2857329333,174.775670733,"$315,000"
608,"5 Mana Street, Vogeltown, Wellington",1,3,-41.3122342167,174.7668714,"$770,000"
609,"13A Adams Terrace, Aro Valley, Wellington",2,3,-41.2933433333,174.763531467,"$1,001,000"
610,"68A Tirangi Road, Rongotai, Wellington",1,2,-41.3227479333,174.803761217,"$640,000"
611,"126 Hobart Street, Miramar, Wellington",1,2,-41.3180212833,174.815760683,"$700,000"
612,"6/2 Penn Way, Brooklyn, Wellington",1,2,-41.3025196667,174.7628453,"$441,000"
613,"77 Durham Street, Brooklyn, Wellington",2,4,-41.2979743333,174.762451217,"$1,257,000"
614,"5/93A Kelburn Parade, Kelburn, Wellington",2,3,-41.2918322,174.765293583,"$665,500"
615,"32 Chamberlain Road, Karori, Wellington",2,3,-41.2830297333,174.73480755,"$1,050,000"
616,"56E Nicholson Road, Khandallah, Wellington",2,3,-41.2504021968,174.79100596,"$925,000"
617,"134 Cashmere Avenue, Khandallah, Wellington",2,4,-41.2487167833,174.79997115,"$870,000"
618,"27 Arlington Street, Mount Cook, Wellington",2,5,-41.2995723,174.771939917,"$980,000"
619,"35 Normanby Street, Newtown, Wellington",1,3,-41.3144518333,174.782011883,"$832,500"
620,"85 Mairangi Road, Wadestown, Wellington",1,3,-41.2645591167,174.76714755,"$872,500"
621,"29 Wade Street, Wadestown, Wellington",3,5,-41.2649083167,174.775554533,"$2,850,000"
622,"97 Waipapa Road, Hataitai, Wellington",2,4,-41.3034639333,174.797511083,"$1,910,000"
623,"35 Ellice Street, Mount Victoria, Wellington",2,3,-41.3000687167,174.782697483,"$860,000"
624,"10 Virginia Grove, Brooklyn, Wellington",1,3,-41.3126291,174.758758283,"$935,000"
625,"31 Hereford Street, Wilton, Wellington",2,4,-41.2712030333,174.759105267,"$1,105,000"
626,"16 Kaihuia Street, Northland, Wellington",1,3,-41.2788671167,174.759557783,"$750,000"
627,"197 Aro Street, Aro Valley, Wellington",1,3,-41.2947456667,174.763154617,"$651,000"
628,"15 Campbell Street, Karori, Wellington",2,3,-41.285267,174.739613333,"$920,000"
629,"132 Onslow Road, Khandallah, Wellington",1,3,-41.2487316833,174.804172517,"$855,000"
630,"45 Arcus Way, Hataitai, Wellington",2,4,-41.302474,174.797451,"$1,020,000"
631,"96 Hobart Street, Miramar, Wellington",1,3,-41.3197139,174.814365567,"$710,000"
632,"85 The Parade, Island Bay, Wellington",2,4,-41.3324863833,174.7738276,"$1,605,000"
633,"21 Reuben Avenue, Brooklyn, Wellington",1,3,-41.3079773833,174.761629683,"$965,000"
634,"63 Breaker Bay Road, Breaker Bay, Wellington",1,3,-41.3320553,174.82942865,"$805,000"
635,"211 Aro Street, Aro Valley, Wellington",1,3,-41.2945101,174.76264115,"$893,022"
636,"5A Parsons Glen, Karori, Wellington",2,3,-41.2921876167,174.726757067,"$710,000"
637,"71 Strathavon Road, Miramar, Wellington",1,3,-41.32335065,174.81888155,"$825,000"
638,"217 Aro Street, Aro Valley, Wellington",2,3,-41.2943679667,174.762333117,"$866,000"
639,"332C The Terrace, Te Aro, Wellington",2,3,-41.2921338333,174.769936383,"$965,000"
640,"28B Arun Crescent, Southgate, Wellington",1,3,-41.33390145,174.77971055,"$860,000"
641,"39 Izard Road, Khandallah, Wellington",2,3,-41.2480170667,174.79578755,"$925,000"
642,"201 Aro Street, Aro Valley, Wellington",1,2,-41.2946945167,174.763042583,"$820,000"
643,"209 Aro Street, Aro Valley, Wellington",1,3,-41.2945524,174.7627324,"$937,000"
644,"93 Breaker Bay Road, Breaker Bay, Wellington",3,4,-41.33203375,174.82718555,"$1,100,000"
645,"5/136 Karori Road, Karori, Wellington",1,2,-41.28200255,174.7465422,"$630,000"
646,"4 Ardross Avenue, Khandallah, Wellington",3,4,-41.2504593833,174.7875351,"$1,570,000"
647,"76 Khandallah Road, Ngaio, Wellington",2,4,-41.2466306667,174.7811553,"$820,000"
648,"19 Collier Avenue, Karori, Wellington",2,3,-41.288661,174.728695,"$867,500"
649,"1/23C Maida Vale Road, Roseneath, Wellington",1,2,-41.287796,174.803101,"$672,500"
650,"15A Waru Street, Khandallah, Wellington",2,4,-41.2531977333,174.789364883,"$1,046,531"
651,"12 Palm Grove, Berhampore, Wellington",1,3,-41.3193797833,174.774294167,"$1,115,000"
652,"125 Breaker Bay Road, Breaker Bay, Wellington",1,3,-41.33452905,174.82555665,"$800,000"
653,"83A Duncan Terrace, Kilbirnie, Wellington",2,4,-41.3191462667,174.790099433,"$985,000"
654,"5A Chamberlain Road, Karori, Wellington",2,4,-41.2848922,174.735036933,"$1,020,000"
655,"1/382 Evans Bay Parade, Hataitai, Wellington",2,3,-41.3043187167,174.800224983,"$1,040,000"
656,"26 Ellesmere Avenue, Miramar, Wellington",2,3,-41.32198825,174.815724983,"$950,000"
657,"47 Ganges Road, Khandallah, Wellington",2,3,-41.2479165333,174.792462233,"$910,000"
658,"290A Karori Road, Karori, Wellington",1,3,-41.28520965,174.735271467,"$692,000"
659,"2/77 Nevay Road, Miramar, Wellington",2,4,-41.3070241833,174.828412017,"$1,005,000"
660,"50 Garden Road, Northland, Wellington",3,5,-41.2827512,174.7615417,"$1,250,000"
661,"44 Overtoun Terrace, Hataitai, Wellington",2,3,-41.3075329167,174.796212367,"$845,000"
662,"46 Norway Street, Aro Valley, Wellington",1,3,-41.28984865,174.761095383,"$765,000"
663,"19 Moffitt Street, Vogeltown, Wellington",1,3,-41.3115885,174.7699973,"$689,000"
664,"531A Broadway, Miramar, Wellington",3,4,-41.32376835,174.822417917,"$1,130,000"
665,"8 Dallas Court, Miramar, Wellington",2,4,-41.3216669667,174.82238555,"$987,500"
666,"23 Tai Paku Paku Road, Karaka Bays, Wellington",2,4,-41.3071124833,174.8309886,"$1,527,500"
667,"14A Darlington Road, Miramar, Wellington",2,3,-41.3124669667,174.823973083,"$1,000,000"
668,"5 Arahanga Grove, Maupuia, Wellington",2,3,-41.3018596667,174.8212122,"$829,000"
669,"29 Boundary Road, Kelburn, Wellington",2,3,-41.2850629167,174.761171267,"$1,095,000"
670,"59 Falkirk Avenue, Seatoun, Wellington",3,4,-41.3245025,174.830745267,"$2,160,500"
671,"75 Amritsar Street, Khandallah, Wellington",2,3,-41.251732,174.798768883,"$810,000"
672,"14 Colville Street, Newtown, Wellington",2,4,-41.3146185667,174.788890317,"$1,230,000"
673,"22 Clarence Street, Brooklyn, Wellington",1,3,-41.3114209833,174.76362365,"$820,000"
674,"7/100 Lyall Parade, Lyall Bay, Wellington",1,2,-41.329746,174.793679667,"$588,000"
675,"41 Makara Road, Karori, Wellington",1,3,-41.2869266667,174.72120315,"$745,000"
676,"103 Akaroa Drive, Maupuia, Wellington",1,3,-41.3036192667,174.821076783,"$728,000"
677,"101 Ira Street, Miramar, Wellington",1,3,-41.3180145667,174.819068167,"$905,000"
678,"97 Elizabeth Street, Mount Victoria, Wellington",1,3,-41.2969174,174.787097083,"$1,264,000"
679,"54 Rolleston Street, Mount Cook, Wellington",1,2,-41.30304995,174.772136317,"$856,000"
680,"97 Quebec Street, Kingston, Wellington",2,3,-41.3275260667,174.764025683,"$923,000"
681,"39A David Crescent, Karori, Wellington",2,3,-41.2796764833,174.737537883,"$835,000"
682,"8/29 South Karori Road, Karori, Wellington",1,2,-41.2909730333,174.723034317,"$350,000"
683,"36 Colway Street, Ngaio, Wellington",2,3,-41.2489466167,174.77773835,"$1,160,000"
684,"92 Oban Street, Wadestown, Wellington",1,3,-41.2586133,174.778248667,"$762,500"
685,"81 Balfour Street, Mornington, Wellington",1,3,-41.3166196167,174.767458367,"$700,000"
686,"27 Cooper Street, Karori, Wellington",1,3,-41.2853603167,174.74393625,"$1,055,000"
687,"81 Sefton Street, Wadestown, Wellington",2,3,-41.2611613833,174.779817133,"$1,280,000"
688,"91 Breaker Bay Road, Breaker Bay, Wellington",2,3,-41.33210035,174.8273133,"$1,400,000"
689,"51 Crofton Road, Ngaio, Wellington",2,3,-41.2543873,174.775377883,"$925,000"
690,"35 Harbour View Road, Northland, Wellington",2,3,-41.2818756333,174.7604145,"$871,178"
691,"23 Ferry Street, Seatoun, Wellington",1,3,-41.3206595167,174.829613967,"$1,240,000"
692,"45A Montgomery Avenue, Karori, Wellington",2,3,-41.2799051667,174.729926133,"$615,000"
693,"36 Kaihuia Street, Northland, Wellington",1,3,-41.2788571667,174.758078667,"$966,036"
694,"101 Kaikoura Street, Maupuia, Wellington",1,2,-41.3026350667,174.82012905,"$762,000"
695,"4 Monro Street, Seatoun, Wellington",2,4,-41.3225408667,174.833994983,"$1,750,500"
696,"69 Raukawa Street, Strathmore Park, Wellington",2,4,-41.3340159167,174.81652705,"$745,000"
697,"7 Waikare Street, Karori, Wellington",2,4,-41.27828145,174.744232767,"$1,200,000"
698,"196 Barnard Street, Wadestown, Wellington",2,3,-41.2596406,174.784820817,"$865,000"
699,"39 Nottingham Street, Karori, Wellington",1,3,-41.2795364,174.748178383,"$800,000"
700,"6 Burrows Avenue, Karori, Wellington",2,3,-41.2872620833,174.730871217,"$880,088"
701,"122 Homebush Road, Khandallah, Wellington",1,3,-41.2465335167,174.806845567,"$762,300"
702,"68 Northland Road, Northland, Wellington",1,3,-41.2827607167,174.758490917,"$835,000"
703,"9 Livingstone Street, Brooklyn  6021, Wellington",0,0,-41.31511854216524,174.76283593578503,"$300,000"
704,"14 Burnham Street, Seatoun, Wellington",2,4,-41.3257269833,174.83140645,"$1,520,000"
705,"11 Livingstone Street, Brooklyn  6021, Wellington",0,0,-41.31530814568928,174.76286029258395,"$350,000"
706,"10 Ranfurly Terrace, Mount Cook, Wellington",1,3,-41.3012764333,174.776710283,"$1,050,000"
707,"7/97 Boulcott Street, Wellington Central, Wellington",1,2,-41.2864036167,174.773842317,"$580,000"
708,"11 Upoko Road, Hataitai, Wellington",2,3,-41.2993645167,174.794526767,"$1,220,000"
709,"93 Duncan Terrace, Kilbirnie, Wellington",1,3,-41.3199737833,174.790600233,"$917,000"
710,"17 Selwyn Terrace, Thorndon, Wellington",1,2,-41.2762032833,174.7747372,"$832,000"
711,"85A Karepa Street, Brooklyn, Wellington",1,3,-41.3029361,174.7587616,"$820,000"
712,"70B Buckley Road, Southgate, Wellington",1,3,-41.3347508833,174.783606967,"$660,000"
713,"6B Farm Road, Northland, Wellington",0,0,-41.2829188,174.7571258,"$500,000"
714,"5/21 Rugby Street, Mount Cook, Wellington",1,2,-41.3015161667,174.78049655,"$855,000"
715,"129 Wadestown Road, Wadestown, Wellington",2,4,-41.2614581,174.77177445,"$1,070,000"
716,"7/240 The Terrace, Wellington Central, Wellington",1,2,-41.2881901333,174.7716636,"$725,000"
717,"61 Hanson Street, Mount Cook, Wellington",1,3,-41.3068707167,174.777026917,"$570,000"
718,"1/109 Majoribanks Street, Mount Victoria, Wellington",1,2,-41.2952515167,174.790401433,"$603,500"
719,"5 Countess Close, Maupuia, Wellington",2,3,-41.3006267,174.820137817,"$935,000"
720,"194 Tinakori Road, Thorndon, Wellington",3,4,-41.2749712,174.77358665,"$1,775,000"
721,"462 Evans Bay Parade, Hataitai, Wellington",1,3,-41.3092723333,174.797617117,"$750,000"
722,"26 Hataitai Road, Hataitai, Wellington",1,3,-41.2977881333,174.800422883,"$682,000"
723,"12/31 Princess Terrace, Newtown, Wellington",1,3,-41.3178510833,174.782678617,"$755,000"
724,"13 Firth Terrace, Karori, Wellington",1,3,-41.2878340167,174.742677583,"$1,204,500"
725,"234 Queens Drive, Lyall Bay, Wellington",2,3,-41.33187455,174.7911791,"$820,000"
726,"48 Ellesmere Avenue, Miramar, Wellington",1,3,-41.3203738833,174.815904867,"$865,000"
727,"18 Ontario Street, Kingston, Wellington",1,3,-41.3220431833,174.7658068,"$755,000"
728,"7 Lochiel Road, Khandallah, Wellington",2,3,-41.2461867,174.79312455,"$1,360,000"
729,"13 Kainui Road, Hataitai, Wellington",1,3,-41.3020337667,174.799937633,"$920,000"
730,"225 Marine Parade, Seatoun, Wellington",3,5,-41.3127320667,174.828685833,"$1,750,000"
731,"144C Rakau Road, Hataitai, Wellington",1,2,-41.29979405,174.793702783,"$500,000"
732,"17 Tamar Street, Island Bay, Wellington",2,3,-41.3314657667,174.77492685,"$1,182,000"
733,"130 Northland Road, Northland, Wellington",1,3,-41.2795924667,174.760654667,$TBC
734,"44A Overtoun Terrace, Hataitai, Wellington",2,4,-41.3074892,174.795891167,"$1,253,000"
735,"14 Cheesman Street, Brooklyn, Wellington",1,3,-41.3140528167,174.7629453,"$663,000"
736,"23 Fettes Crescent, Seatoun, Wellington",2,4,-41.3213676,174.827804633,"$951,888"
737,"2/282 Mitchell Street, Brooklyn, Wellington",2,3,-41.3181364333,174.758305633,"$725,000"
738,"19 Fettes Crescent, Seatoun, Wellington",2,3,-41.3210414667,174.827805483,"$950,000"
739,"16 Streatlam Crescent, Strathmore Park, Wellington",3,5,-41.3249072833,174.8239842,"$2,100,000"
740,"31 Ludlam Street, Seatoun, Wellington",2,3,-41.3239325,174.831389933,"$1,550,000"
741,"132 Duncan Terrace, Kilbirnie, Wellington",1,3,-41.3210106,174.789793567,"$826,000"
742,"129 Marine Parade, Seatoun, Wellington",0,0,-41.31706125,174.827702883,"$615,000"
743,"10 Queens Drive, Kilbirnie, Wellington",2,3,-41.3204468167,174.793543517,"$915,000"
744,"13 Dasent Street, Karori, Wellington",3,4,-41.2883699833,174.737198033,"$1,415,000"
745,"21 Fettes Crescent, Seatoun, Wellington",0,0,-41.321147,174.827997,"$523,112"
746,"20 Mantell Street, Seatoun, Wellington",1,3,-41.3271246667,174.835390167,"$1,065,000"
747,"236A Queens Drive, Lyall Bay, Wellington",1,2,-41.33194995,174.791135217,"$711,000"
748,"16 Captain Edward Daniell Drive, Ngaio, Wellington",3,5,-41.2551952833,174.781035467,"$1,650,000"
749,"5/16 Marewa Road, Hataitai, Wellington",1,1,-41.3007462833,174.7947893,"$335,000"
750,"1 Mandalay Terrace, Khandallah, Wellington",2,4,-41.2483687167,174.800744133,$TBC
751,"47 Durham Street, Aro Valley, Wellington",2,3,-41.2963764,174.763114033,"$1,010,500"
752,"48 Tio Tio Road, Miramar, Wellington",1,3,-41.3239335,174.825351833,"$705,000"
753,"62 Lonsdale Crescent, Rongotai, Wellington",2,4,-41.3224507,174.80356135,"$920,000"
754,"26 Calcutta Street, Khandallah, Wellington",2,3,-41.2515773667,174.787658183,"$1,253,000"
755,"101 Rongotai Road, Kilbirnie, Wellington",3,5,-41.3180733667,174.79755785,$TBC
756,"3/142 Onslow Road, Khandallah, Wellington",2,4,-41.2479186667,174.80367205,"$800,000"
757,"10 Waterhouse Drive, Brooklyn, Wellington",2,4,-41.30561625,174.751923183,"$950,000"
758,"13 Ferry Street, Seatoun, Wellington",1,3,-41.3201559667,174.829636533,"$1,070,000"
759,"105 Orangi Kaupapa Road, Northland, Wellington",1,3,-41.2776076,174.76246295,"$955,000"
760,"6B/172 Oriental Parade, Oriental Bay, Wellington",2,3,-41.2908893833,174.791127033,"$3,200,000"
761,"52 Belvedere Road, Hataitai, Wellington",2,3,-41.3079925167,174.797503133,"$1,163,000"
762,"3 Ranelagh Terrace, Karori, Wellington",1,3,-41.28514065,174.731604083,"$725,100"
763,"4 Pari Tai Way, Houghton Bay, Wellington",1,2,-41.3321635833,174.788314717,"$588,000"
764,"27/35 Jessie Street, Te Aro, Wellington",1,2,-41.2955627167,174.779482217,$TBC
765,"27 Grass Street, Roseneath, Wellington",2,4,-41.2908523667,174.799475367,"$1,157,000"
766,"89 Ross Street, Lyall Bay, Wellington",1,3,-41.3231253,174.79713105,"$530,000"
767,"35B Ngaio Road, Kelburn, Wellington",2,3,-41.2863535167,174.762226467,"$1,060,000"
768,"1 Grant Road, Thorndon, Wellington",1,2,-41.2680182333,174.77994915,$TBC
769,"1 Mary Dobson Way, Island Bay",2,4,-41.332397,174.776539,"$1,380,000"
770,"83 Todman Street, Brooklyn, Wellington",1,3,-41.3068018833,174.759430017,"$810,000"
771,"38 Kenya Street, Ngaio, Wellington",2,4,-41.2538434333,174.771808117,"$1,090,000"
772,"15/14 Harriett Street, Thorndon, Wellington",2,3,-41.2752986167,174.77172435,"$860,000"
773,"97 Duncan Terrace, Kilbirnie, Wellington",2,3,-41.3202004167,174.790235483,"$910,000"
774,"385A Karori Road, Karori, Wellington",2,4,-41.2874542833,174.726559517,"$1,100,000"
775,"4A/42 Cable Street, Te Aro, Wellington",2,2,-41.2909425333,174.78065265,"$1,185,000"
776,"29 Disley Street, Highbury, Wellington",1,3,-41.2911639667,174.755742367,"$1,021,000"
777,"4 Monaghan Avenue, Karori, Wellington",1,3,-41.2860358833,174.735234767,"$1,150,000"
778,"51A Mandalay Terrace, Khandallah, Wellington",2,3,-41.2459392333,174.805022633,$TBC
779,"59A Houghton Bay Road, Houghton Bay, Wellington",2,4,-41.3322431833,174.787447767,"$940,000"
780,"35B Hobson Crescent, Thorndon, Wellington",2,3,-41.2731922833,174.780490983,"$670,000"
781,"131 Elizabeth Street, Mount Victoria, Wellington",1,3,-41.29741075,174.788634917,"$1,051,972"
782,"50 Belvedere Road, Hataitai, Wellington",1,3,-41.3080968333,174.7971292,"$1,050,000"
783,"14 Collier Avenue, Karori, Wellington",2,3,-41.287731,174.728645083,$TBC
784,"19F Kabul Street, Khandallah, Wellington",2,4,-41.2560237167,174.784765017,"$1,310,000"
785,"3 Scorian Close, Karori, Wellington",2,4,-41.2852950333,174.7387387,"$880,000"
786,"64 Norway Street, Aro Valley, Wellington",2,4,-41.2896037,174.759545233,"$857,500"
787,"6 Orleans Street, Ngaio, Wellington",2,4,-41.24778595,174.769051567,"$965,260"
788,"50 Homebush Road, Khandallah, Wellington",3,4,-41.249263,174.807285,"$1,825,000"
789,"44 Monro Street, Seatoun, Wellington",2,3,-41.3248542667,174.8332028,"$1,650,000"
790,"15 Moir Street, Mount Victoria, Wellington",1,3,-41.2992213333,174.7829343,"$827,000"
791,"45 Burnham Street, Seatoun, Wellington",3,4,-41.3260983333,174.834916533,"$2,450,000"
792,"44 Lonsdale Crescent, Rongotai, Wellington",1,3,-41.3216497667,174.80295375,"$630,000"
793,"60 Lonsdale Crescent, Rongotai, Wellington",2,4,-41.32240015,174.803440767,"$1,305,999"
794,"121 Wilton Road, Wilton, Wellington",2,4,-41.2682491,174.7606827,"$1,357,550"
795,"5 Burwah Street, Berhampore, Wellington",1,3,-41.3218605833,174.774135333,"$911,000"
796,"10 Rata Road, Hataitai, Wellington",2,4,-41.3028891667,174.799908283,"$1,400,000"
797,"185 Darlington Road, Miramar, Wellington",2,4,-41.3037187333,174.826148817,"$935,777"
798,"5 Monmouth Way, Wilton, Wellington",1,3,-41.27132075,174.76255935,"$700,000"
799,"157 Grafton Road, Roseneath, Wellington",2,4,-41.2963095167,174.802715617,"$950,000"
800,"81 Wright Street, Mount Cook, Wellington",1,2,-41.3068101833,174.77414345,"$770,000"
801,"10 Wayside, Miramar, Wellington",1,3,-41.3241770667,174.814077817,"$875,000"
802,"10 Bruges Avenue, Miramar, Wellington",2,3,-41.3224149167,174.81870195,"$962,500"
803,"6 Mathieson Avenue, Khandallah, Wellington",2,4,-41.2458358667,174.799934217,"$1,100,000"
804,"127C Makara Road, Karori, Wellington",2,4,-41.2838379,174.7170199,"$760,000"
805,"46 Randwick Road, Northland, Wellington",1,3,-41.2796805167,174.75572705,"$785,000"
806,"28 Hohiria Road, Hataitai, Wellington",1,3,-41.2999463167,174.799422683,"$956,500"
807,"42 Hall Street, Newtown, Wellington",1,3,-41.3100905667,174.77523775,"$503,000"
808,"71 Clyde Street, Island Bay, Wellington",1,3,-41.3330272333,174.77512795,"$780,000"
809,"3 Maida Vale Road, Roseneath, Wellington",3,5,-41.28776305,174.80169475,"$4,920,000"
810,"1/49 Mandalay Terrace, Khandallah, Wellington",1,2,-41.2460257667,174.804837217,"$670,000"
811,"528A Evans Bay Parade, Hataitai, Wellington",2,3,-41.31179275,174.79541895,"$985,000"
812,"334 Karori Road, Karori, Wellington",1,3,-41.2864074,174.730873817,"$752,311"
813,"65 Sidlaw Street, Strathmore Park, Wellington",1,3,-41.3328215167,174.82256595,"$820,000"
814,"23 Brougham Street, Mount Victoria, Wellington",3,4,-41.2959429667,174.787065367,"$3,300,000"
815,"57 Jubilee Road, Khandallah, Wellington",2,4,-41.2497234167,174.7936937,"$1,730,000"
816,"455 Karaka Bay Road, Karaka Bays, Wellington",1,3,-41.3009194167,174.83148665,"$710,000"
817,"17C Fitzroy Street, Wadestown, Wellington",1,2,-41.2612561,174.77666375,"$440,000"
818,"3/1 Cottleville Terrace, Thorndon, Wellington",1,2,-41.2689436833,174.780251433,"$625,000"
819,"223 Tinakori Road, Thorndon, Wellington",2,3,-41.2763148167,174.77242265,"$1,000,000"
820,"4 West Road, Northland, Wellington",2,4,-41.2796935167,174.758292917,"$1,180,000"
821,"68A Lyall Parade, Lyall Bay, Wellington",1,3,-41.3290338833,174.794741383,"$1,061,500"
822,"17 Talavera Terrace, Kelburn, Wellington",3,5,-41.2835168,174.771869233,"$2,655,000"
823,"10 Appleton Place, Karori, Wellington",1,3,-41.2801216833,174.72646935,"$749,500"
824,"39A Clutha Avenue, Khandallah, Wellington",1,3,-41.2490712333,174.7877201,"$900,000"
825,"1/93A Jubilee Road, Khandallah, Wellington",2,4,-41.251691,174.791885,$TBC
826,"71 Monro Street, Seatoun, Wellington",3,5,-41.3264432333,174.833081233,"$2,120,000"
827,"20 Ventnor Street, Seatoun, Wellington",2,3,-41.3208803667,174.830089583,"$1,330,000"
828,"108 Oriental Parade, Oriental Bay, Wellington",2,4,-41.291795,174.787949,"$1,890,000"
829,"61 Old Porirua Road, Ngaio, Wellington",2,3,-41.2572105833,174.781174483,"$800,000"
830,"18A Stone Street, Miramar, Wellington",1,3,-41.3177529167,174.814310983,"$1,010,000"
831,"46 Sefton Street, Wadestown, Wellington",3,5,-41.2630168167,174.780228733,"$1,210,000"
832,"53 Stoke Street, Newtown, Wellington",1,2,-41.3137823833,174.774889767,"$592,000"
833,"6A Kilsyth Street, Karori, Wellington",2,3,-41.2907443167,174.735665067,"$706,000"
834,"78B Salamanca Road, Kelburn, Wellington",1,2,-41.2857662301,174.769038721,"$930,000"
835,"8/151 Hataitai Road, Hataitai, Wellington",1,2,-41.3033067,174.795705683,"$670,000"
836,"8A David Crescent, Karori, Wellington",3,5,-41.2814650382,174.737437512,"$1,535,000"
837,"141 Nevay Road, Miramar, Wellington",2,3,-41.3021266,174.829055517,"$1,010,100"
838,"28 The Parade, Island Bay, Wellington",1,3,-41.32940665,174.77372145,"$912,000"
839,"5 Masefield Way, Karori, Wellington",3,4,-41.29005325,174.74260825,"$2,400,000"
840,"62 Spencer Street, Crofton Downs, Wellington",3,4,-41.2538536333,174.76107095,"$1,175,000"
841,"26A Mysore Street, Khandallah, Wellington",2,3,-41.2510643167,174.78402955,"$820,750"
842,"79 Ngaio Gorge Road, Ngaio, Wellington",1,2,-41.2560949167,174.7760869,"$600,000"
843,"1/267 Cuba Street, Te Aro, Wellington",1,1,-41.2965563167,174.774077367,"$401,267"
844,"322 Oriental Parade, Oriental Bay, Wellington",3,4,-41.2894744833,174.797514183,$TBC
845,"45 Weld Street, Wadestown, Wellington",2,4,-41.26151685,174.7742652,"$935,000"
846,"7/50 Darlington Road, Miramar, Wellington",1,2,-41.31025415,174.82563335,"$610,129"
847,"40 Chamberlain Road, Karori, Wellington",2,4,-41.2824534333,174.734772983,"$1,178,000"
848,"7 Kau Kau Way, Ngaio, Wellington",1,3,-41.2449211833,174.778312867,"$810,420"
849,"88A Homebush Road, Khandallah, Wellington",2,4,-41.24758885,174.808822417,"$790,000"
850,"35 Cornford Street, Karori, Wellington",1,3,-41.2802842833,174.7349059,"$920,000"
851,"8 Paisley Terrace, Karori, Wellington",1,3,-41.2803531833,174.752729817,"$901,000"
852,"153 Washington Avenue, Brooklyn, Wellington",1,3,-41.3097527833,174.766064933,"$730,000"
853,"19 Cavendish Square, Strathmore Park, Wellington",2,3,-41.3254653,174.8253554,"$1,135,000"
854,"174 Sutherland Road, Lyall Bay, Wellington",1,2,-41.3291052833,174.7896426,"$850,000"
855,"16 Milton Street, Berhampore, Wellington",1,3,-41.3200710833,174.7787711,"$780,000"
856,"30 Luxford Street, Berhampore, Wellington",2,3,-41.3197341833,174.776032033,"$860,000"
857,"56 Fox Street, Ngaio, Wellington",2,4,-41.2459133333,174.776308417,"$965,000"
858,"106 Onepu Road, Lyall Bay, Wellington",1,3,-41.3237077833,174.795206167,"$797,000"
859,"69 Brougham Street, Mount Victoria, Wellington",2,4,-41.2975441167,174.785080333,"$1,780,000"
860,"1 Glasgow Street, Kelburn, Wellington",2,4,-41.28719995,174.766753033,"$1,535,000"
861,"38 Hornsey Road, Melrose, Wellington",1,3,-41.3277228333,174.786656467,"$967,777"
862,"16 Garden Road, Northland, Wellington",2,4,-41.2837439667,174.759595483,"$870,000"
863,"34 Westview Grove, Miramar, Wellington",2,4,-41.3240223833,174.821140867,"$821,000"
864,"14 Glen Road, Kelburn, Wellington",2,4,-41.2856471667,174.76404195,"$1,610,000"
865,"4 Goldies Brae, Thorndon, Wellington",3,4,-41.2674129833,174.780059917,"$2,195,000"
866,"414A Evans Bay Parade, Hataitai, Wellington",2,3,-41.3064750667,174.798328567,"$1,020,000"
867,"104 Wallace Street, Mount Cook, Wellington",1,3,-41.3055757667,174.77487745,"$697,000"
868,"10A Palm Grove, Berhampore, Wellington",2,3,-41.3191745167,174.7743006,"$942,500"
869,"1A Port Street, Mount Victoria, Wellington",1,3,-41.2953359167,174.7888495,"$1,050,000"
870,"14 Winston Street, Crofton Downs, Wellington",2,4,-41.2561422333,174.764226467,"$821,000"
871,"30 Tanera Crescent, Brooklyn, Wellington",2,4,-41.3016216833,174.76311275,"$961,000"
872,"54 Fox Street, Ngaio, Wellington",1,3,-41.245808,174.77611,"$642,500"
873,"200 Sydney Street West, Thorndon, Wellington",1,2,-41.2786644,174.77144045,"$838,000"
874,"65 Constable Street, Newtown, Wellington",2,3,-41.3130292833,174.7833056,"$806,500"
875,"19 Grant Road, Thorndon, Wellington",2,4,-41.2687665167,174.779056033,"$1,560,000"
876,"58 Salamanca Road, Kelburn, Wellington",2,3,-41.2843923833,174.769205383,"$1,465,000"
877,"63 Hazlewood Avenue, Karori, Wellington",1,2,-41.2968674333,174.724413583,"$581,000"
878,"8A Ellesmere Avenue, Miramar, Wellington",1,3,-41.3230984167,174.816083967,"$795,000"
879,"28B Punjab Street, Khandallah, Wellington",2,3,-41.2531733763,174.785593836,"$1,253,000"
880,"8 Crieff Street, Northland, Wellington",3,4,-41.28456075,174.759905567,"$2,200,000"
881,"3 Chisenhall Street, Karori, Wellington",3,5,-41.2827860833,174.748912483,"$1,500,000"
882,"78 Oban Street, Wadestown, Wellington",1,3,-41.2592625667,174.777869083,"$775,000"
883,"260 Rintoul Street, Berhampore, Wellington",1,3,-41.3219326333,174.777124783,"$830,000"
884,"2/15 Apu Crescent, Lyall Bay, Wellington",1,2,-41.3260604333,174.796480483,"$601,215"
885,"439 Broadway, Miramar, Wellington",1,3,-41.3250118333,174.817296167,"$681,000"
886,"92 Mairangi Road, Wadestown, Wellington",2,4,-41.2663462333,174.766953983,"$875,000"
887,"13 Victory Avenue, Karori, Wellington",1,3,-41.2818616,174.729592433,"$636,000"
888,"78 The Parade, Island Bay, Wellington",1,3,-41.3318573833,174.77344975,"$820,000"
889,"43 Overtoun Terrace, Hataitai, Wellington",2,4,-41.3075028667,174.79652235,"$1,057,500"
890,"1/90 Allington Road, Karori, Wellington",1,3,-41.29035475,174.716626717,"$593,000"
891,"6A Hapua Street, Hataitai, Wellington",2,4,-41.3017939167,174.792471667,"$711,000"
892,"38A Ferry Street, Seatoun, Wellington",0,0,-41.3215696333,174.828906117,$TBC
893,"32 Cooper Street, Karori, Wellington",2,3,-41.2858754333,174.743760683,"$1,197,500"
894,"97 Rodrigo Road, Melrose, Wellington",1,3,-41.3219970833,174.789496817,"$750,000"
895,"184 Wadestown Road, Wadestown, Wellington",2,4,-41.2614091167,174.767820583,"$1,640,000"
896,"7 Braithwaite Street, Karori, Wellington",2,3,-41.2839907333,174.749619317,"$842,500"
897,"16A Wentworth Street, Mornington, Wellington",2,3,-41.3184487,174.76247555,"$1,065,000"
898,"74 Kilbirnie Crescent, Kilbirnie, Wellington",1,3,-41.3153358833,174.7930216,$TBC
899,"12 Inglis Street, Seatoun, Wellington",3,4,-41.3217522333,174.832778467,"$1,837,000"
900,"27 Garden Road, Northland, Wellington",1,2,-41.2833586167,174.760214,"$955,000"
901,"54 Liardet Street, Vogeltown, Wellington",1,2,-41.31465095,174.7700375,"$630,000"
902,"6 Tedder Way, Karori, Wellington",2,4,-41.2806903667,174.731695317,"$820,000"
903,"40 Glen Road, Kelburn, Wellington",2,3,-41.2872183667,174.763306317,"$1,225,000"
904,"8/84 Freyberg Street, Lyall Bay, Wellington",2,3,-41.3274508667,174.792837567,$TBC
905,"67 Waikowhai Street, Ngaio, Wellington",2,3,-41.2539880333,174.769698333,"$837,785"
906,"84 Mills Road, Brooklyn, Wellington",1,3,-41.31526295,174.76522235,"$880,000"
907,"18 Bidwill Street, Mount Cook, Wellington",2,4,-41.30197835,174.772764217,"$1,250,000"
908,"53 Rex Street, Miramar, Wellington",1,3,-41.3128664,174.820654933,"$617,500"
909,"90 Curtis Street, Northland, Wellington",1,3,-41.2787312833,174.75569545,"$760,000"
910,"59 Trelissick Crescent, Ngaio, Wellington",2,4,-41.2571116333,174.77118495,"$1,251,000"
911,"467 Karaka Bay Road, Karaka Bays, Wellington",3,4,-41.29998785,174.831131467,"$1,225,000"
912,"62 Waripori Street, Berhampore, Wellington",1,3,-41.3186484333,174.775895933,"$826,000"
913,"6/200 Onepu Road, Lyall Bay, Wellington",1,2,-41.3279739333,174.79511895,"$550,000"
914,"30 Rodrigo Road, Kilbirnie, Wellington",2,3,-41.3200445667,174.791901933,"$1,215,000"
915,"162 Seatoun Heights Road, Seatoun, Wellington",2,3,-41.31366985,174.826831133,"$1,409,009"
916,"14 Selwyn Terrace, Thorndon, Wellington",2,4,-41.27607945,174.7747372,"$1,300,000"
917,"31 Grant Road, Thorndon, Wellington",2,4,-41.26921795,174.778550183,"$1,100,000"
918,"19 Futuna Close, Karori, Wellington",2,3,-41.2817704167,174.738475817,"$940,000"
919,"67 Townsend Road, Miramar, Wellington",2,3,-41.316085,174.824268433,"$777,000"
920,"5/268 Oriental Parade, Oriental Bay, Wellington",1,2,-41.2910770833,174.79626255,"$1,040,000"
921,"45 Houghton Bay Road, Houghton Bay, Wellington",1,3,-41.3313589167,174.78612955,"$707,000"
922,"9/240 The Terrace, Wellington Central, Wellington",1,3,-41.2882281333,174.771766567,"$770,000"
923,"20 Cathie Place, Karori, Wellington",1,3,-41.2783122167,174.72936615,"$680,000"
924,"22A Lucknow Terrace, Khandallah, Wellington",2,3,-41.2480048333,174.78370635,"$755,000"
925,"4 Astor Street, Karori, Wellington",1,3,-41.2892757,174.724355817,"$783,000"
926,"84A Messines Road, Karori, Wellington",2,3,-41.2891257667,174.749450867,"$800,000"
927,"6 Jeypore Street, Berhampore, Wellington",1,3,-41.3218562,174.773622,"$980,000"
928,"6 Seatoun Heights Road, Seatoun, Wellington",3,4,-41.32304695,174.826851683,"$1,567,000"
929,"21 Sugarloaf Road, Brooklyn, Wellington",1,3,-41.3043608,174.761265133,"$503,100"
930,"11 Strathmore Avenue, Strathmore Park, Wellington",1,3,-41.3255004333,174.820611617,"$945,000"
931,"2 Gordon Street, Newtown, Wellington",1,3,-41.3157682667,174.779816583,"$850,000"
932,"21 Hanson Street, Mount Cook, Wellington",2,3,-41.30578,174.77734975,"$869,000"
933,"7 Izard Road, Khandallah, Wellington",2,4,-41.2464878333,174.796151133,$TBC
934,"57 Nevay Road, Miramar, Wellington",1,3,-41.3085158333,174.82861615,"$840,000"
935,"590 Makara Road, Makara, Wellington",2,3,-41.25641225,174.715144383,"$1,080,000"
936,"99 Houghton Bay Road, Houghton Bay, Wellington",1,2,-41.33425325,174.78817525,"$886,000"
937,"20 Barton Terrace, Thorndon, Wellington",2,4,-41.2776757667,174.769638217,"$1,180,000"
938,"23 Hanson Street, Mount Cook, Wellington",2,3,-41.3058525833,174.777315883,"$836,000"
939,"29 Spencer Street, Crofton Downs, Wellington",3,5,-41.2557801,174.763343383,"$1,243,000"
940,"17 Mairangi Road, Wadestown, Wellington",2,3,-41.2636517833,174.769677883,"$995,000"
941,"107 Nevay Road, Miramar, Wellington",1,3,-41.3049663333,174.828491883,"$670,000"
942,"145 Parkvale Road, Karori, Wellington",1,3,-41.27659935,174.73541555,"$600,000"
943,"13 Makererua Street, Ngaio, Wellington",2,3,-41.2496302167,174.7691286,"$850,000"
944,"4 Rahui Street, Strathmore Park, Wellington",1,3,-41.3317155,174.817613617,"$680,000"
945,"7 Poplar Grove, Thorndon, Wellington",1,2,-41.2746911,174.7731967,"$921,000"
946,"320 Oriental Parade, Oriental Bay, Wellington",2,4,-41.2895402333,174.797474483,"$2,950,000"
947,"100 Creswick Terrace, Northland, Wellington",2,4,-41.2832204667,174.7551936,"$975,000"
948,"450 Evans Bay Parade, Hataitai, Wellington",1,3,-41.3084923833,174.79700435,"$1,050,000"
949,"2E/150 Oriental Parade, Oriental Bay, Wellington",2,3,-41.2912852333,174.790158983,"$2,550,000"
950,"70 Curtis Street, Northland, Wellington",1,3,-41.2806522833,174.754200883,"$814,000"
951,"6A Reuben Avenue, Brooklyn, Wellington",1,3,-41.3071971167,174.762169567,"$710,000"
952,"16 Talavera Terrace, Kelburn, Wellington",2,4,-41.2832935833,174.771674333,"$1,700,000"
953,"17 Clermont Terrace, Kelburn, Wellington",0,0,-41.2833101,174.77120735,"$700,000"
954,"8/6 Brussels Street, Miramar, Wellington",1,2,-41.3125445167,174.8159099,"$820,000"
955,"113 Northland Road, Northland, Wellington",2,3,-41.28005865,174.759339283,"$981,000"
956,"17 Picton Avenue, Newtown, Wellington",1,2,-41.3105520333,174.784865633,"$915,670"
957,"10 Amapur Drive, Khandallah, Wellington",2,3,-41.2454388833,174.783104717,"$950,000"
958,"4/6 Overtoun Terrace, Hataitai, Wellington",1,2,-41.3054275333,174.796446417,"$555,000"
959,"10 Cavendish Square, Strathmore Park, Wellington",3,5,-41.3250158167,174.82542265,"$1,300,000"
960,"154A Parkvale Road, Karori, Wellington",2,3,-41.2766103833,174.736003367,"$751,500"
961,"7 Mcintyre Avenue, Mount Victoria, Wellington",2,3,-41.29334085,174.789617317,"$1,275,000"
962,"385 Karori Road, Karori, Wellington",2,4,-41.28704075,174.7261962,"$1,355,000"
963,"46 Daniell Street, Newtown, Wellington",1,3,-41.3127549167,174.782089767,"$1,145,000"
964,"33 Harbour View Road, Northland, Wellington",1,3,-41.2817288167,174.760644417,"$617,230"
965,"26 Henry Street, Kilbirnie, Wellington",2,3,-41.3128362667,174.791178033,"$1,110,000"
966,"21A David Crescent, Karori, Wellington",2,3,-41.2800143833,174.737730167,"$800,000"
967,"131 Abel Smith Street, Aro Valley, Wellington",1,2,-41.2949041833,174.76952365,$TBC
968,"278 Queens Drive, Lyall Bay, Wellington",1,2,-41.3341664833,174.790675117,"$881,000"
969,"3 Espin Crescent, Karori, Wellington",2,4,-41.2849073333,174.75162005,"$1,234,000"
970,"95 Constable Street, Newtown, Wellington",1,3,-41.3127300333,174.7850979,"$895,150"
971,"17 Boardwalk Lane, Seatoun, Wellington",2,3,-41.3236651333,174.836378883,"$1,200,000"
972,"8 Bengal Street, Khandallah, Wellington",2,4,-41.2532263,174.7903436,"$900,300"
973,"52 Dundas Street, Seatoun, Wellington",2,4,-41.32329005,174.833306767,"$1,670,200"
974,"73 Coromandel Street, Newtown, Wellington",1,3,-41.3122899333,174.78654665,"$978,000"
975,"8 Hepara Street, Hataitai, Wellington",2,4,-41.2974796167,174.7979595,"$801,000"
976,"391B Karori Road, Karori, Wellington",2,3,-41.28711865,174.725580033,"$737,143"
977,"10 Zetland Street, Highbury, Wellington",2,4,-41.2925086,174.75764775,"$955,000"
978,"14 Buller Street, Te Aro, Wellington",2,4,-41.2925729167,174.771293433,"$1,715,000"
979,"225A The Terrace, Wellington Central, Wellington",2,3,-41.2883696167,174.772363383,"$1,210,000"
980,"4/22 Ross Street, Kilbirnie, Wellington",1,2,-41.3196398,174.797803633,"$502,500"
981,"702/38 Jessie Street, Te Aro, Wellington",2,2,-41.2958452167,174.779498533,$TBC
982,"565 Broadway, Miramar, Wellington",1,3,-41.3241422333,174.82547105,"$800,000"
983,"35A Trelissick Crescent, Ngaio, Wellington",2,4,-41.257058,174.770295483,"$1,025,000"
984,"94 Rolleston Street, Mount Cook, Wellington",1,3,-41.3040858167,174.771006283,"$730,000"
985,"18A Barton Terrace, Thorndon, Wellington",1,2,-41.2777579333,174.769545883,"$586,900"
986,"4 Hornsey Road, Melrose, Wellington",2,3,-41.3245710333,174.7885139,"$875,000"
987,"232 Sutherland Road, Lyall Bay, Wellington",1,3,-41.3319643667,174.79023305,"$720,000"
988,"12A Upoko Road, Hataitai, Wellington",1,3,-41.2992839667,174.794910767,"$805,000"
989,"33 Futuna Close, Karori, Wellington",2,3,-41.28098105,174.738538917,"$865,000"
990,"41 Tiketike Way, Brooklyn, Wellington",2,3,-41.3108777,174.761226267,"$815,000"
991,"1 Carroll Street, Ngaio, Wellington",1,3,-41.24742535,174.777454867,"$865,000"
992,"23 Makara Road, Karori, Wellington",1,3,-41.2880615333,174.722038467,"$637,500"
993,"77 Tiketike Way, Brooklyn, Wellington",2,4,-41.3113437167,174.76085295,"$905,000"
994,"105 Wilton Road, Wilton, Wellington",2,3,-41.2679065167,174.761719467,"$750,000"
995,"11/42 Vivian Street, Te Aro, Wellington",2,3,-41.29628005,174.779881717,"$1,068,000"
996,"17 Caribou Place, Kingston, Wellington",1,3,-41.32307305,174.763845367,"$776,000"
997,"31 Priscilla Crescent, Kingston, Wellington",1,3,-41.3219895667,174.767931833,"$830,000"
998,"117 Wexford Road, Miramar, Wellington",1,2,-41.3193768333,174.811482767,"$743,500"
999,"342 The Terrace, Te Aro, Wellington",2,4,-41.2920258167,174.769377867,"$1,515,000"
1000,"139 Townsend Road, Miramar, Wellington",1,3,-41.3190065333,174.823155967,"$777,700"
1001,"41 Simla Crescent, Khandallah, Wellington",2,4,-41.2458765167,174.786486683,"$1,750,000"
1002,"6/59 Mortimer Terrace, Brooklyn, Wellington",1,2,-41.2993764833,174.762542833,"$630,000"
1003,"39 Koromiko Road, Aro Valley, Wellington",2,3,-41.2937329667,174.75562115,"$915,500"
1004,"230C Tinakori Road, Thorndon, Wellington",1,2,-41.2757565667,174.772554617,"$580,000"
1005,"69 Rex Street, Miramar, Wellington",1,2,-41.31331755,174.821791967,"$580,000"
1006,"136 Queens Drive, Lyall Bay, Wellington",2,4,-41.3276983167,174.791689083,"$881,000"
1007,"23A Perth Street, Ngaio, Wellington",1,3,-41.2554240667,174.773487783,"$765,000"
1008,"7 Motueka Street, Ngaio, Wellington",1,3,-41.2477089167,174.771142183,"$918,000"
1009,"57 Sefton Street, Wadestown, Wellington",2,4,-41.2627751167,174.779826017,"$1,395,000"
1010,"22 Silverstream Road, Crofton Downs, Wellington",2,4,-41.25444995,174.764523967,"$1,000,125"
1011,"50 Forres Street, Seatoun, Wellington",2,4,-41.3222312333,174.833641117,"$1,600,000"
1012,"130 Old Porirua Road, Ngaio, Wellington",2,3,-41.2547254,174.77759965,"$1,000,000"
1013,"2/4 Frederick Street, Te Aro, Wellington",1,2,-41.2966169833,174.7788484,"$680,000"
1014,"4 Aplin Terrace, Ngaio, Wellington",1,3,-41.24957035,174.776945233,"$900,000"
1015,"240 Tinakori Road, Thorndon, Wellington",1,2,-41.2762346333,174.772008967,"$749,000"
1016,"564C Adelaide Road, Berhampore, Wellington",1,2,-41.3247424667,174.774818617,"$550,000"
1017,"20A Lancaster Street, Karori, Wellington",2,4,-41.2839905333,174.7469089,"$1,555,000"
1018,"2 Yule Street, Kilbirnie, Wellington",1,3,-41.3191058,174.79938015,"$710,000"
1019,"123A Coromandel Street, Newtown, Wellington",3,5,-41.3144594667,174.787544133,"$925,000"
1020,"57 Bolton Street, Kelburn, Wellington",2,4,-41.2805523667,174.772878183,$TBC
1021,"53 Nicholson Road, Khandallah, Wellington",3,5,-41.24969255,174.792296467,"$1,250,000"
1022,"37 Boardwalk Lane, Seatoun, Wellington",3,5,-41.3244692833,174.836692867,"$2,475,000"
1023,"28 Medway Street, Island Bay, Wellington",1,3,-41.3346185,174.7716415,"$500,000"
1024,"20 Roy Street, Newtown, Wellington",2,3,-41.3191437833,174.782567483,$TBC
1025,"3 Mortimer Terrace, Aro Valley, Wellington",1,3,-41.2976532333,174.764621467,"$820,000"
1026,"49 Hankey Street, Mount Cook, Wellington",1,2,-41.3011733833,174.772175033,"$647,000"
1027,"44I Roxburgh Street, Mount Victoria, Wellington",1,2,-41.2929792667,174.7871509,"$703,000"
1028,"95 Rakau Road, Hataitai, Wellington",2,4,-41.3016837833,174.795221133,"$1,110,000"
1029,"13 Thurleigh Grove, Karori, Wellington",1,2,-41.28906845,174.7200846,"$690,000"
1030,"435 Makara Road, Makara, Wellington",1,3,-41.2663482333,174.707865067,"$1,050,000"
1031,"16 Saddleback Grove, Karori, Wellington",2,3,-41.29568435,174.725284667,"$711,000"
1032,"22 Seatoun Heights Road, Seatoun, Wellington",1,3,-41.3226055167,174.825987867,"$1,145,000"
1033,"72 Ira Street, Miramar, Wellington",1,3,-41.3194251833,174.8203623,"$798,000"
1034,"13 Rewa Road, Hataitai, Wellington",2,4,-41.3053249167,174.798176183,"$1,470,000"
1035,"6 Salisbury Terrace, Mount Cook, Wellington",1,2,-41.305967,174.773224,"$1,002,000"
1036,"3/4 Queen Street, Mount Victoria, Wellington",1,2,-41.2974279,174.785527833,"$495,000"
1037,"59 Karepa Street, Brooklyn, Wellington",1,3,-41.3020512167,174.758784217,"$1,110,000"
1038,"138 Khandallah Road, Khandallah, Wellington",3,4,-41.2478931,174.7860336,"$2,500,000"
1039,"297 Mitchell Street, Brooklyn, Wellington",1,3,-41.3192393,174.758082017,"$725,000"
1040,"25/30 Taranaki Street, Te Aro, Wellington",0,0,-41.2914543667,174.7789312,"$840,000"
1041,"34B Rodrigo Road, Kilbirnie, Wellington",2,3,-41.3207084167,174.79101795,"$640,000"
1042,"112 Seatoun Heights Road, Seatoun, Wellington",3,4,-41.3155435833,174.825678933,"$2,500,000"
1043,"40 Lonsdale Crescent, Rongotai, Wellington",1,3,-41.3214399833,174.80285835,"$745,000"
1044,"35 Connaught Terrace, Brooklyn, Wellington",3,5,-41.30995225,174.76780335,"$1,600,000"
1045,"17 Highbury Crescent, Highbury, Wellington",2,4,-41.2947100833,174.754217533,"$1,270,000"
1046,"42 Gloucester Street, Wilton, Wellington",2,4,-41.2685817833,174.757420133,"$886,000"
1047,"11 Cockayne Road, Khandallah, Wellington",3,5,-41.2468822333,174.7890147,"$1,315,000"
1048,"159 Mitchell Street, Brooklyn, Wellington",2,4,-41.31078365,174.758356283,"$866,000"
1049,"119 Park Road, Miramar, Wellington",1,3,-41.3104803,174.820463867,"$982,000"
1050,"330 South Karori Road, Karori, Wellington",2,4,-41.3078732667,174.7061476,"$1,279,000"
1051,"4 Clive Road, Khandallah, Wellington",2,4,-41.25174,174.79255,"$1,135,000"
1052,"1A/2 Clyde Quay Wharf, Te Aro, Wellington",2,2,-41.2897809167,174.785995783,$TBC
1053,"30 Mills Road, Brooklyn, Wellington",2,4,-41.3121011,174.76573575,"$1,100,000"
1054,"5 Glendavar Street, Berhampore, Wellington",1,3,-41.3217811,174.778495133,"$660,000"
1055,"3 Steeple Lane, Seatoun, Wellington",3,4,-41.3255112833,174.836341083,"$1,655,000"
1056,"16 Wellington Road, Hataitai, Wellington",1,3,-41.3120899833,174.794408717,"$780,000"
1057,"96 Wadestown Road, Wadestown, Wellington",2,3,-41.26162445,174.775090233,"$875,000"
1058,"9 Ardross Avenue, Khandallah, Wellington",2,4,-41.2502115667,174.78784115,"$950,500"
1059,"45A Ganges Road, Khandallah, Wellington",2,4,-41.2476898,174.792608033,"$1,500,000"
1060,"153 The Ridgeway, Mornington, Wellington",2,3,-41.3197837,174.764406383,"$680,000"
1061,"119 Nevay Road, Miramar, Wellington",2,3,-41.3039900801,174.828752931,"$900,000"
1062,"192A Mitchell Street, Brooklyn, Wellington",1,2,-41.3129821667,174.756887017,"$520,000"
1063,"50 Bridge Street, Rongotai, Wellington",1,3,-41.3223472667,174.805174267,"$815,000"
1064,"5 Baxter Way, Karori, Wellington",2,4,-41.2929717333,174.73823125,"$1,010,000"
1065,"18 Ahuriri Street, Strathmore Park, Wellington",1,3,-41.3354250667,174.818902067,"$811,000"
1066,"35 Spencer Street, Crofton Downs, Wellington",2,4,-41.255649,174.76285,"$800,000"
1067,"23 Frandi Street, Thorndon, Wellington",2,4,-41.2667339,174.781143517,"$1,005,000"
1068,"38 Raroa Road, Kelburn, Wellington",2,3,-41.2894087833,174.757160583,"$1,450,000"
1069,"16 Waru Street, Khandallah, Wellington",2,3,-41.2522237167,174.788256417,"$895,000"
1070,"42 Lerwick Terrace, Melrose, Wellington",3,5,-41.3219744,174.791278067,$TBC
1071,"4/84A Endeavour Street, Lyall Bay, Wellington",1,2,-41.3243253333,174.798302617,"$642,000"
1072,"210 Karori Road, Karori, Wellington",2,4,-41.2836244333,174.740734667,"$1,550,000"
1073,"8 Selkirk Way, Karori, Wellington",2,3,-41.2896010333,174.736149517,"$1,235,976"
1074,"49 Barnard Street, Wadestown, Wellington",2,4,-41.2635721167,174.781966417,"$1,010,000"
1075,"34 Coromandel Street, Newtown, Wellington",1,3,-41.31031905,174.785630533,"$841,000"
1076,"277 Queens Drive, Lyall Bay, Wellington",2,4,-41.334285,174.79145,"$1,545,000"
1077,"2/127 Queens Drive, Lyall Bay, Wellington",1,1,-41.3271974333,174.792171583,"$345,000"
1078,"8A Campbell Street, Karori, Wellington",2,3,-41.2849493833,174.739004133,"$880,000"
1079,"18 Somerset Avenue, Newtown, Wellington",2,4,-41.31135095,174.785468433,"$1,502,000"
1080,"97A Allington Road, Karori, Wellington",1,2,-41.2907912833,174.7173853,"$530,000"
1081,"9 Caribou Place, Kingston, Wellington",1,3,-41.3234323833,174.764077367,"$725,000"
1082,"2/22 Parklands Drive, Karori, Wellington",1,3,-41.2908068,174.725803717,"$660,000"
1083,"19 Maida Vale Road, Roseneath, Wellington",1,2,-41.2876578,174.80261885,$TBC
1084,"107 Upland Road, Kelburn, Wellington",2,3,-41.2883857333,174.761280783,"$1,171,000"
1085,"9 Mysore Street, Khandallah, Wellington",2,3,-41.2502046667,174.783386883,"$880,000"
1086,"43 Little George Street, Thorndon, Wellington",1,3,-41.2734566,174.774555217,"$650,000"
1087,"63 Rhine Street, Island Bay, Wellington",1,3,-41.332751,174.770228583,"$791,000"
1088,"31 Havelock Street, Mornington, Wellington",2,3,-41.31666605,174.766175067,$TBC
1089,"45 Norway Street, Aro Valley, Wellington",1,3,-41.2899419333,174.760392383,"$700,000"
1090,"12 Orchard Street, Wadestown, Wellington",2,4,-41.2667029833,174.779462683,"$1,300,000"
1091,"18 North Terrace, Kelburn, Wellington",3,5,-41.2852586167,174.765807633,"$2,570,000"
1092,"36 Overtoun Terrace, Hataitai, Wellington",2,4,-41.30712175,174.796381317,"$1,101,000"
1093,"14 Hepara Street, Hataitai, Wellington",2,3,-41.29709605,174.797755867,"$945,160"
1094,"21 Jefferson Street, Brooklyn, Wellington",3,4,-41.3037629167,174.7657045,"$2,500,000"
1095,"3 Apu Crescent, Lyall Bay, Wellington",1,3,-41.3259297333,174.79617615,"$775,000"
1096,"116 Evans Bay Parade, Roseneath, Wellington",2,3,-41.2937122833,174.80316605,"$966,000"
1097,"97 Ashton Fitchett Drive, Brooklyn, Wellington",2,4,-41.30904415,174.753917117,"$900,000"
1098,"4/12 Anderson Terrace, Mount Cook, Wellington",1,1,-41.3015773833,174.771767533,"$442,000"
1099,"69 Mairangi Road, Wadestown, Wellington",1,3,-41.2640670667,174.76690465,"$725,000"
1100,"60 Chelmsford Street, Ngaio, Wellington",2,4,-41.2471146833,174.77144005,"$1,105,000"
1101,"15A Tio Tio Road, Miramar, Wellington",1,3,-41.32288565,174.823023567,"$680,000"
1102,"14 Ventnor Street, Seatoun, Wellington",1,3,-41.3205471333,174.830203083,"$900,000"
1103,"5 Cassis Place, Crofton Downs, Wellington",2,4,-41.2579835667,174.764688383,"$830,000"
1104,"14 Cleveland Street, Brooklyn, Wellington",2,3,-41.3048742167,174.765970717,"$1,405,000"
1105,"212 Barnard Street, Wadestown, Wellington",2,4,-41.2593346167,174.7834537,"$920,000"
1106,"117A Glenmore Street, Kelburn, Wellington",1,2,-41.284829,174.761165,"$590,248"
1107,"52A Creswick Terrace, Northland, Wellington",2,4,-41.2808075167,174.755019133,"$1,505,000"
1108,"9/77 Tory Street, Te Aro, Wellington",2,3,-41.29496375,174.780768033,"$900,000"
1109,"11 Khouri Avenue, Karori, Wellington",2,4,-41.2862553667,174.7215477,"$1,025,000"
1110,"44A Argentine Avenue, Miramar, Wellington",1,2,-41.3187261,174.8184946,"$300,000"
1111,"33 Tiketike Way, Brooklyn, Wellington",2,3,-41.3114153,174.761321833,"$752,750"
1112,"58 Kandy Crescent, Ngaio, Wellington",2,3,-41.2450321667,174.780244133,"$708,000"
1113,"187 Onepu Road, Lyall Bay, Wellington",1,3,-41.32767095,174.795582617,"$909,090"
1114,"91 Nevay Road, Miramar, Wellington",3,5,-41.3058053167,174.828670567,"$1,250,000"
1115,"26 Waru Street, Khandallah, Wellington",3,5,-41.2525315333,174.787799467,"$1,800,000"
1116,"22 Tai Paku Paku Road, Karaka Bays, Wellington",2,4,-41.30771875,174.83035645,"$1,477,500"
1117,"28A Hanson Street, Mount Cook, Wellington",1,2,-41.3066614167,174.776753733,"$575,000"
1118,"37 Colway Street, Ngaio, Wellington",2,4,-41.2486181167,174.77833885,"$1,075,000"
1119,"34 Rose Street, Wadestown, Wellington",0,0,-41.262755,174.766382,"$400,000"
1120,"24/125 Queens Drive, Lyall Bay, Wellington",1,1,-41.3270499833,174.792199933,"$365,000"
1121,"112 Ohiro Road, Brooklyn, Wellington",2,4,-41.3009279,174.76463705,"$1,300,000"
1122,"99 Austin Street, Mount Victoria, Wellington",3,4,-41.3002951333,174.7862924,"$1,370,000"
1123,"32 Khandallah Road, Ngaio, Wellington",1,3,-41.2471078333,174.778613983,"$912,750"
1124,"75 Camperdown Road, Miramar, Wellington",0,0,-41.3062155667,174.828593317,"$1,100,000"
1125,"8 St Mary St, Thorndon, Wellington",1,3,-41.278693,174.768557,"$928,000"
1126,"21 Kio Road, Hataitai, Wellington",0,0,-41.29766615,174.8034858,"$125,000"
